OPE ID,School,Total Allocation ($),Minimum Allocation to be Awarded for Emergency Financial Aid Grants to Students ($),Address,Address with USA,Latitude,Longitude,Type,Student population,Undergraduate students,Graduation Rate,Transfer-Out Rate
115300,"California State University, Northridge","44,652,328.00","22,326,164.00","18111 Nordhoff St, Northridge, California 91330","18111 Nordhoff St, Northridge, California 91330, USA",34.2399364,-118.5262521,"4-year, Public",39910,34799,55%,6%
113900,"California State University, Long Beach","41,729,439.00","20,864,720.00","1250 Bellflower Blvd, Long Beach, California 90840-0115","1250 Bellflower Blvd, Long Beach, California 90840-0115, USA",33.7771717,-118.1147888,"4-year, Public",38674,33054,74%,2%
113700,"California State University, Fullerton","41,021,512.00","20,510,756.00","800 N State College Blvd, Fullerton, California 92831-3599","800 N State College Blvd, Fullerton, California 92831-3599, USA",33.8819278,-117.8889736,"4-year, Public",40445,35335,69%,2%
114000,"California State University, Los Angeles","37,914,166.00","18,957,083.00","5151 State University Dr, Los Angeles, California 90032-8506","5151 State University Dr, Los Angeles, California 90032-8506, USA",34.0620391,-118.1736587,"4-year, Public",26671,22797,52%,2%
131400,"University Of California, Irvine","36,731,629.00","18,365,815.00","501 Aldrich Hall, Irvine, California 92697","501 Aldrich Hall, Irvine, California 92697, USA",33.6483937,-117.8411455,"4-year, Public",36908,30382,84%,9%
131500,"University Of California, Los Angeles","35,906,870.00","17,953,435.00","405 Hilgard Ave, Los Angeles, California 90095-1405","405 Hilgard Ave, Los Angeles, California 90095-1405, USA",34.0725988,-118.439277,"4-year, Public",44371,31543,92%,4%
115000,California State University - Sacramento,"35,734,362.00","17,867,181.00","6000 J St, Sacramento, California 95819-2694","6000 J St, Sacramento, California 95819-2694, USA",38.5642453,-121.4252955,"4-year, Public",31992,28819,55%,3%
131700,"University Of California, San Diego","34,889,769.00","17,444,885.00","9500 Gilman Dr, La Jolla, California 92093","9500 Gilman Dr, La Jolla, California 92093, USA",32.8824069,-117.2348172,"4-year, Public",38736,30794,87%,
131300,"University Of California, Davis","33,871,763.00","16,935,882.00","One Shields Avenue, Davis, California 95616-8678","One Shields Avenue, Davis, California 95616-8678, USA",38.5409093,-121.7462685,"4-year, Public",38634,30982,87%,
114700,"California State University, Fresno","32,802,107.00","16,401,054.00","5241 N Maple Ave, Fresno, California 93740","5241 N Maple Ave, Fresno, California 93740, USA",36.8108284,-119.7462226,"4-year, Public",24298,21541,56%,2%
114400,"California State Polytechnic University, Pomona","30,904,089.00","15,452,045.00","3801 W Temple Avenue, Pomona, California 91768","3801 W Temple Avenue, Pomona, California 91768, USA",34.055599,-117.8192622,"4-year, Public",28058,26454,69%,2%
131200,"University Of California, Berkeley","30,440,627.00","15,220,314.00","200 California Hall, Berkeley, California 94720","200 California Hall, Berkeley, California 94720, USA",37.8718399,-122.2603363,"4-year, Public",43185,31348,93%,
131600,"University Of California, Riverside","29,734,626.00","14,867,313.00","900 University Ave, Riverside, California 92521","900 University Ave, Riverside, California 92521, USA",33.9754243,-117.3315961,"4-year, Public",25547,22055,76%,15%
115100,San Diego State University,"29,394,934.00","14,697,467.00","5500 Campanile Dr, San Diego, California 92182-0001","5500 Campanile Dr, San Diego, California 92182-0001, USA",32.7720012,-117.0726966,"4-year, Public",35544,30848,73%,3%
115500,San Jose State University,"28,769,546.00","14,384,773.00","One Washington Square, San Jose, California 95192-0001","One Washington Square, San Jose, California 95192-0001, USA",37.334157,-121.8842554,"4-year, Public",36085,27905,64%,4%
115400,San Francisco State University,"28,725,948.00","14,362,974.00","1600 Holloway Ave, San Francisco, California 94132","1600 Holloway Ave, San Francisco, California 94132, USA",37.7227669,-122.4767213,"4-year, Public",29032,25924,57%,6%
114200,"California State University, San Bernardino","26,243,781.00","13,121,891.00","5500 University Parkway, San Bernardino, California 92407-2393","5500 University Parkway, San Bernardino, California 92407-2393, USA",34.1813145,-117.3215307,"4-year, Public",20638,18282,55%,1%
132000,"University Of California, Santa Barbara","25,204,196.00","12,602,098.00","5221 Cheadle Hall, Santa Barbara, California 93106","5221 Cheadle Hall, Santa Barbara, California 93106, USA",34.4162819,-119.8464146,"4-year, Public",26314,23349,83%,
114600,"California State University, Chico","19,959,391.00","9,979,696.00","First and Normal Sts, Chico, California 95929-0150","First and Normal Sts, Chico, California 95929-0150, USA",39.7210777,-121.8348487,"4-year, Public",17110,16164,67%,4%
132100,"University Of California, Santa Cruz","19,327,201.00","9,663,601.00","1156 High St, Santa Cruz, California 95064-1011","1156 High St, Santa Cruz, California 95064-1011, USA",36.9834126,-122.054164,"4-year, Public",19494,17517,75%,5%
132800,University Of Southern California,"19,278,560.00","9,639,280.00","University Park, Los Angeles, California 90089","University Park, Los Angeles, California 90089, USA",34.0309703,-118.2789735,"4-year, Private not-for-profit",48321,20351,92%,
114100,"California State University, Dominguez Hills","18,481,277.00","9,240,639.00","1000 E Victoria St, Carson, California 90747-0005","1000 E Victoria St, Carson, California 90747-0005, USA",33.8639658,-118.2570021,"4-year, Public",17977,15365,44%,3%
124500,Mount San Antonio College,"17,457,959.00","8,728,980.00","1100 N Grand Ave, Walnut, California 91789-1399","1100 N Grand Ave, Walnut, California 91789-1399, USA",34.0482035,-117.845125,"2-year, Public",29799,29799,36%,6%
3011300,"California State University, San Marcos","15,963,036.00","7,981,518.00","333 S Twin Oaks Valley Rd, San Marcos, California 92096-0001","333 S Twin Oaks Valley Rd, San Marcos, California 92096-0001, USA",33.1290871,-117.1596729,"4-year, Public",16053,14837,54%,4%
126100,Pasadena City College,"15,230,050.00","7,615,025.00","1570 E Colorado Blvd., Pasadena, California 91106-2003","1570 E Colorado Blvd., Pasadena, California 91106-2003, USA",34.1440134,-118.1191895,"2-year, Public",26971,26971,37%,8%
2559300,United Education Institute,"14,992,982.00","7,496,491.00","6055 Pacific Boulevard, Huntington Park, California 90255","6055 Pacific Boulevard, Huntington Park, California 90255, USA",33.9860576,-118.2262578,"< 2-year, Private for-profit",921,921,60%,
121900,Long Beach City College,"14,663,058.00","7,331,529.00","4901 E. Carson St., Long Beach, California 90808-1706","4901 E. Carson St., Long Beach, California 90808-1706, USA",33.8327926,-118.134784,"2-year, Public",24127,24127,20%,11%
113800,"California State University, East Bay","14,617,347.00","7,308,674.00","25800 Carlos Bee Blvd, Hayward, California 94542","25800 Carlos Bee Blvd, Hayward, California 94542, USA",37.6571303,-122.0567457,"4-year, Public",16064,13202,50%,4%
114300,California Polytechnic State University,"14,095,976.00","7,047,988.00","1 Grand Ave., San Luis Obispo, California 93407","1 Grand Ave., San Luis Obispo, California 93407, USA",35.3011339,-120.658758,"4-year, Public",21426,20503,82%,2%
799300,"California State University, Bakersfield","13,588,942.00","6,794,471.00","9001 Stockdale Hwy, Bakersfield, California 93311-1099","9001 Stockdale Hwy, Bakersfield, California 93311-1099, USA",35.3486641,-119.1033448,"4-year, Public",11531,9981,43%,3%
115700,"California State University, Stanislaus","13,314,715.00","6,657,358.00","One University Circle, Turlock, California 95382-0299","One University Circle, Turlock, California 95382-0299, USA",37.5232508,-120.857671,"4-year, Public",10974,9723,59%,3%
4127100,"University Of California, Merced","13,037,897.00","6,518,949.00","5200 North Lake Road, Merced, California 95343-5603","5200 North Lake Road, Merced, California 95343-5603, USA",37.3637343,-120.4311096,"4-year, Public",8847,8151,69%,23%
128600,Santa Monica College,"12,193,513.00","6,096,757.00","1900 Pico Blvd, Santa Monica, California 90405-1628","1900 Pico Blvd, Santa Monica, California 90405-1628, USA",34.0178145,-118.4716762,"4-year, primarily associate's, Public",27497,27497,29%,18%
116100,Cerritos Community College,"12,186,449.00","6,093,225.00","11110 Alondra Blvd, Norwalk, California 90650-6298","11110 Alondra Blvd, Norwalk, California 90650-6298, USA",33.8861477,-118.0962259,"2-year, Public",22287,22287,27%,13%
111800,Bakersfield College,"12,182,994.00","6,091,497.00","1801 Panorama Dr, Bakersfield, California 93305-1299","1801 Panorama Dr, Bakersfield, California 93305-1299, USA",35.408,-118.9716483,"4-year, primarily associate's, Public",26380,26380,20%,11%
3698300,West Coast University,"11,797,821.00","5,898,911.00","12215 Victory Boulevard, North Hollywood, California 91606","12215 Victory Boulevard, North Hollywood, California 91606, USA",34.1871923,-118.3994232,"4-year, Private for-profit",2215,2215,38%,
119700,El Camino College,"11,659,979.00","5,829,990.00","16007 Crenshaw Blvd, Torrance, California 90506","16007 Crenshaw Blvd, Torrance, California 90506, USA",33.8844832,-118.3304386,"2-year, Public",24223,24223,35%,10%
116300,Chaffey Community College,"11,446,484.00","5,723,242.00","5885 Haven Ave, Rancho Cucamonga, California 91737-3002","5885 Haven Ave, Rancho Cucamonga, California 91737-3002, USA",34.1464807,-117.5748348,"2-year, Public",22731,22731,26%,9%
130700,Fresno City College,"11,224,898.00","5,612,449.00","1101 E. University Ave, Fresno, California 93741","1101 E. University Ave, Fresno, California 93741, USA",36.7675959,-119.7969299,"2-year, Public",24806,24806,21%,6%
127000,Riverside City College,"10,831,532.00","5,415,766.00","4800 Magnolia Avenue, Riverside, California 92506","4800 Magnolia Avenue, Riverside, California 92506, USA",33.9714889,-117.3808994,"2-year, Public",21118,21118,28%,12%
2226000,East Los Angeles College,"10,797,043.00","5,398,522.00","1301 Avenida Cesar Chavez, Monterey Park, California 91754-6099","1301 Avenida Cesar Chavez, Monterey Park, California 91754-6099, USA",34.0410705,-118.1509336,"2-year, Public",36885,36885,38%,5%
123200,American River College,"10,613,663.00","5,306,832.00","4700 College Oak Dr, Sacramento, California 95841-4286","4700 College Oak Dr, Sacramento, California 95841-4286, USA",38.6488478,-121.3470152,"2-year, Public",31265,31265,25%,12%
114900,Humboldt State University,"10,302,998.00","5,151,499.00","1 Harpst Street, Arcata, California 95521-8299","1 Harpst Street, Arcata, California 95521-8299, USA",40.8744392,-124.0790979,"4-year, Public",7180,6580,49%,5%
111300,Antelope Valley College,"10,245,691.00","5,122,846.00","3041 West  Ave K, Lancaster, California 93536-5426","3041 West  Ave K, Lancaster, California 93536-5426, USA",34.6761685,-118.1853732,"4-year, primarily associate's, Public",13909,13909,27%,7%
124600,Mt. San Jacinto College,"9,713,109.00","4,856,555.00","1499 N. State St., San Jacinto, California 92583-2399","1499 N. State St., San Jacinto, California 92583-2399, USA",33.8066222,-116.96941,"2-year, Public",15597,15597,26%,15%
120100,Fullerton College,"9,700,734.00","4,850,367.00","321 E Chapman Avenue, Fullerton, California 92832-2095","321 E Chapman Avenue, Fullerton, California 92832-2095, USA",33.875251,-117.9175771,"2-year, Public",22613,22613,30%,14%
124000,Modesto Junior College,"9,575,504.00","4,787,752.00","435 College Ave, Modesto, California 95350-5800","435 College Ave, Modesto, California 95350-5800, USA",37.6511684,-121.0091396,"4-year, primarily associate's, Public",18068,18068,22%,12%
129400,Southwestern Community College District,"9,253,264.00","4,626,632.00","900 Otay Lakes Rd., Chula Vista, California 91910-7299","900 Otay Lakes Rd., Chula Vista, California 91910-7299, USA",32.6407136,-116.9980644,"2-year, Public",19231,19231,27%,9%
125000,Orange Coast College,"9,120,468.00","4,560,234.00","2701 Fairview Road, Costa Mesa, California 92626","2701 Fairview Road, Costa Mesa, California 92626, USA",33.6713265,-117.9117079,"2-year, Public",20042,20042,39%,10%
115600,Sonoma State University,"9,093,447.00","4,546,724.00","1801 E Cotati Ave, Rohnert Park, California 94928-3609","1801 E Cotati Ave, Rohnert Park, California 94928-3609, USA",38.3409331,-122.6738225,"4-year, Public",8887,8143,62%,7%
118600,College Of The Sequoias,"8,630,859.00","4,315,430.00","915 S. Mooney Blvd, Visalia, California 93277-2214","915 S. Mooney Blvd, Visalia, California 93277-2214, USA",36.3229462,-119.3145528,"2-year, Public",12815,12815,29%,5%
3980300,California State University Channel Islands,"8,580,009.00","4,290,005.00","One University Dr, Camarillo, California 93012","One University Dr, Camarillo, California 93012, USA",34.1620556,-119.043463,"4-year, Public",7525,7112,54%,6%
3260300,"California State University, Monterey Bay","8,459,727.00","4,229,864.00","100 Campus Center, Seaside, California 93955-8001","100 Campus Center, Seaside, California 93955-8001, USA",36.6538224,-121.801697,"4-year, Public",7650,6789,63%,5%
133500,Victor Valley Community College,"8,067,843.00","4,033,922.00","18422 Bear Valley Rd, Victorville, California 92395-5850","18422 Bear Valley Rd, Victorville, California 92395-5850, USA",34.473543,-117.2610014,"2-year, Public",13126,13126,21%,11%
123300,Sacramento City College,"7,946,038.00","3,973,019.00","3835 Freeport Blvd, Sacramento, California 95822-1386","3835 Freeport Blvd, Sacramento, California 95822-1386, USA",38.5415791,-121.4903529,"2-year, Public",20829,20829,24%,10%
112500,California Baptist University,"7,913,118.00","3,956,559.00","8432 Magnolia Ave, Riverside, California 92504-3297","8432 Magnolia Ave, Riverside, California 92504-3297, USA",33.9284053,-117.4255589,"4-year, Private not-for-profit",11045,8190,63%,24%
128000,San Joaquin Delta College,"7,835,430.00","3,917,715.00","5151 Pacific Ave, Stockton, California 95207","5151 Pacific Ave, Stockton, California 95207, USA",37.9950829,-121.3192899,"2-year, Public",18533,18533,30%,9%
126000,Palomar College,"7,702,862.00","3,851,431.00","1140 W. Mission, San Marcos, California 92069-1487","1140 W. Mission, San Marcos, California 92069-1487, USA",33.1512336,-117.1821809,"2-year, Public",23874,23874,30%,11%
122600,Los Angeles Pierce College,"7,694,796.00","3,847,398.00","6201 Winnetka Ave, Woodland Hills, California 91371-0002","6201 Winnetka Ave, Woodland Hills, California 91371-0002, USA",34.1824071,-118.5710341,"2-year, Public",18765,18765,32%,9%
129000,Sierra College,"7,595,581.00","3,797,791.00","5100 Sierra College Blvd, Rocklin, California 95677-3397","5100 Sierra College Blvd, Rocklin, California 95677-3397, USA",38.794612,-121.2058275,"2-year, Public",18226,18226,40%,12%
116600,Citrus College,"7,429,415.00","3,714,708.00","1000 W Foothill Blvd, Glendora, California 91741-1899","1000 W Foothill Blvd, Glendora, California 91741-1899, USA",34.1333468,-117.884956,"2-year, Public",13130,13130,38%,9%
130500,Stanford University,"7,376,668.00","3,688,334.00"," , Stanford, California 94305"," , Stanford, California 94305, USA",37.4135757,-122.1689284,"4-year, Private not-for-profit",17249,6996,94%,1%
132500,University Of San Francisco,"7,293,888.00","3,646,944.00","2130 Fulton St, San Francisco, California 94117-1080","2130 Fulton St, San Francisco, California 94117-1080, USA",37.7752654,-122.4517272,"4-year, Private not-for-profit",10636,6577,75%,16%
807300,Butte College,"7,281,962.00","3,640,981.00","3536 Butte Campus Drive, Oroville, California 95965-8399","3536 Butte Campus Drive, Oroville, California 95965-8399, USA",39.6501451,-121.6419465,"2-year, Public",10100,10100,33%,10%
448000,De Anza Community College,"7,235,258.00","3,617,629.00","21250 Stevens Creek Blvd., Cupertino, California 95014","21250 Stevens Creek Blvd., Cupertino, California 95014, USA",37.3195396,-122.0450548,"2-year, Public",18669,18669,65%,5%
119300,Cypress College,"7,147,934.00","3,573,967.00","9200 Valley View, Cypress, California 90630-5897","9200 Valley View, Cypress, California 90630-5897, USA",33.8279582,-118.023732,"4-year, primarily associate's, Public",15679,15679,33%,19%
120800,Grossmont College,"7,141,562.00","3,570,781.00","8800 Grossmont College Dr, El Cajon, California 92020-1799","8800 Grossmont College Dr, El Cajon, California 92020-1799, USA",32.8164953,-117.0063045,"2-year, Public",16958,16958,29%,13%
118200,College Of The Desert,"7,061,346.00","3,530,673.00","43-500 Monterey Ave, Palm Desert, California 92260","43-500 Monterey Ave, Palm Desert, California 92260, USA",33.7330326,-116.3864666,"2-year, Public",11919,11919,28%,4%
450200,City College Of San Francisco,"7,009,874.00","3,504,937.00","50 Frida Kahlo Drive, San Francisco, California 94112-1898","50 Frida Kahlo Drive, San Francisco, California 94112-1898, USA",37.725852,-122.4508572,"2-year, Public",24441,24441,35%,9%
127200,San Bernardino Valley College,"6,732,563.00","3,366,282.00","701 South Mount Vernon Avenue, San Bernardino, California 92410-2798","701 South Mount Vernon Avenue, San Bernardino, California 92410-2798, USA",34.088754,-117.3129529,"2-year, Public",14872,14872,17%,8%
119100,Diablo Valley College,"6,679,277.00","3,339,639.00","321 Golf Club Rd, Pleasant Hill, California 94523","321 Golf Club Rd, Pleasant Hill, California 94523, USA",37.9685658,-122.0712718,"2-year, Public",19871,19871,48%,10%
123700,Merced Community College,"6,536,491.00","3,268,246.00","3600 M St, Merced, California 95348-2898","3600 M St, Merced, California 95348-2898, USA",37.3336824,-120.4730031,"2-year, Public",11173,11173,30%,6%
890300,College Of The Canyons,"6,326,734.00","3,163,367.00","26455 Rockwell Canyon Rd, Santa Clarita, California 91355-1899","26455 Rockwell Canyon Rd, Santa Clarita, California 91355-1899, USA",34.4043812,-118.5705894,"2-year, Public",19089,19089,38%,13%
126900,Rio Hondo Community College,"6,232,775.00","3,116,388.00","3600 Workman Mill Rd, Whittier, California 90601-1616","3600 Workman Mill Rd, Whittier, California 90601-1616, USA",34.0199534,-118.031874,"4-year, primarily associate's, Public",19358,19358,23%,7%
122800,Los Angeles Valley College,"6,154,624.00","3,077,312.00","5800 Fulton Avenue, Valley Glen, California 91401-4096","5800 Fulton Avenue, Valley Glen, California 91401-4096, USA",34.1753393,-118.4189809,"2-year, Public",16982,16982,26%,10%
2241800,American Career College,"5,944,572.00","2,972,286.00","4021 Rosewood Avenue, Los Angeles, California 90004","4021 Rosewood Avenue, Los Angeles, California 90004, USA",34.0793518,-118.2925843,"2-year, Private for-profit",1567,1567,64%,
128700,Santa Rosa Junior College,"5,942,841.00","2,971,421.00","1501 Mendocino Avenue, Santa Rosa, California 95401-4395","1501 Mendocino Avenue, Santa Rosa, California 95401-4395, USA",38.454581,-122.7198213,"2-year, Public",19101,19101,37%,9%
127500,San Diego Mesa College,"5,911,519.00","2,955,760.00","7250 Mesa College Dr, San Diego, California 92111-4998","7250 Mesa College Dr, San Diego, California 92111-4998, USA",32.8047563,-117.1690578,"4-year, primarily associate's, Public",20712,20712,28%,13%
128500,Santa Barbara City College,"5,767,428.00","2,883,714.00","721 Cliff Drive, Santa Barbara, California 93109-2394","721 Cliff Drive, Santa Barbara, California 93109-2394, USA",34.4060713,-119.6990924,"2-year, Public",14133,14133,41%,14%
121600,University Of La Verne,"5,658,977.00","2,829,489.00","1950 Third St, La Verne, California 91750-4401","1950 Third St, La Verne, California 91750-4401, USA",34.1008542,-117.7732346,"4-year, Private not-for-profit",7396,4528,73%,
128400,Santa Ana College,"5,594,396.00","2,797,198.00","1530 W. 17th Street, Santa Ana, California 92706-3398","1530 W. 17th Street, Santa Ana, California 92706-3398, USA",33.7579717,-117.8889425,"4-year, primarily associate's, Public",27052,27052,28%,8%
753600,Cosumnes River College,"5,574,947.00","2,787,474.00","8401 Center Parkway, Sacramento, California 95823-5799","8401 Center Parkway, Sacramento, California 95823-5799, USA",38.4535803,-121.4216495,"2-year, Public",14398,14398,27%,7%
111700,Azusa Pacific University,"5,548,456.00","2,774,228.00","901 E Alosta, Azusa, California 91702-7000","901 E Alosta, Azusa, California 91702-7000, USA",34.1294151,-117.8879158,"4-year, Private not-for-profit",9297,5136,68%,
123900,Miracosta College,"5,511,006.00","2,755,503.00","One Barnard Drive, Oceanside, California 92056-3899","One Barnard Drive, Oceanside, California 92056-3899, USA",33.1903058,-117.3010225,"4-year, primarily associate's, Public",12992,12992,33%,11%
116400,Chapman University,"5,505,229.00","2,752,615.00","One University Dr., Orange, California 92866","One University Dr., Orange, California 92866, USA",33.7931305,-117.8521395,"4-year, Private not-for-profit",9850,7505,81%,
122300,Los Angeles City College,"5,197,272.00","2,598,636.00","855 N Vermont Ave, Los Angeles, California 90029","855 N Vermont Ave, Los Angeles, California 90029, USA",34.0892322,-118.292904,"2-year, Public",14937,14937,22%,7%
132900,University Of The Pacific,"5,164,869.00","2,582,435.00","3601 Pacific Ave, Stockton, California 95211-0197","3601 Pacific Ave, Stockton, California 95211-0197, USA",37.9774118,-121.3123094,"4-year, Private not-for-profit",6447,3640,71%,
711500,Moorpark College,"5,143,560.00","2,571,780.00","7075 Campus Rd, Moorpark, California 93021-1695","7075 Campus Rd, Moorpark, California 93021-1695, USA",34.2996142,-118.8341914,"2-year, Public",14275,14275,40%,12%
122700,Los Angeles Trade-Technical College,"5,124,229.00","2,562,115.00","400 W Washington Blvd, Los Angeles, California 90015-4181","400 W Washington Blvd, Los Angeles, California 90015-4181, USA",34.0325515,-118.2697468,"2-year, Public",13094,13094,25%,9%
3113300,Uei College,"5,025,381.00","2,512,691.00","3602 N. Blackstone, Suite 0268, Fresno, California 93726","3602 N. Blackstone, Suite 0268, Fresno, California 93726, USA",36.7815555,-119.7885945,"< 2-year, Private for-profit",927,927,56%,
121400,Imperial Valley College,"4,995,150.00","2,497,575.00","380 E. Aten Road, Imperial, California 92251-0158","380 E. Aten Road, Imperial, California 92251-0158, USA",32.8290418,-115.5054213,"2-year, Public",8511,8511,35%,7%
3969600,Uei College,"4,785,647.00","2,392,824.00","661 West Redondo Beach Boulevard, Gardena, California 90247","661 West Redondo Beach Boulevard, Gardena, California 90247, USA",33.8933028,-118.2872552,"< 2-year, Private for-profit",953,953,60%,
1164900,Loyola Marymount University,"4,723,135.00","2,361,568.00","One Lmu Drive, Los Angeles, California 90045-2659","One Lmu Drive, Los Angeles, California 90045-2659, USA",33.9680913,-118.4213624,"4-year, Private not-for-profit",9822,6778,80%,
127300,San Diego City College,"4,592,301.00","2,296,151.00","1313 Park Boulevard, San Diego, California 92101-4787","1313 Park Boulevard, San Diego, California 92101-4787, USA",32.7186055,-117.1525357,"2-year, Public",14056,14056,21%,11%
133400,Ventura College,"4,581,538.00","2,290,769.00","4667 Telegraph Rd, Ventura, California 93003-3872","4667 Telegraph Rd, Ventura, California 93003-3872, USA",34.2773843,-119.2306844,"2-year, Public",12696,12696,38%,6%
1146000,National University,"4,563,497.00","2,281,749.00","11255 North Torrey Pines Road, La Jolla, California 92037-1011","11255 North Torrey Pines Road, La Jolla, California 92037-1011, USA",32.9098722,-117.2434527,"4-year, Private not-for-profit",16670,7356,29%,28%
2539500,Irvine Valley College,"4,485,810.00","2,242,905.00","5500 Irvine Center Drive, Irvine, California 92618-0301","5500 Irvine Center Drive, Irvine, California 92618-0301, USA",33.6744624,-117.7784413,"2-year, Public",12812,12812,46%,15%
1039500,University Of San Diego,"4,426,552.00","2,213,276.00","5998 Alcala Park, San Diego, California 92110-2492","5998 Alcala Park, San Diego, California 92110-2492, USA",32.7716583,-117.1915679,"4-year, Private not-for-profit",9181,5919,81%,
120600,Golden West College,"4,318,142.00","2,159,071.00","15744 Goldenwest St., Huntington Beach, California 92647-2710","15744 Goldenwest St., Huntington Beach, California 92647-2710, USA",33.7325619,-118.0046404,"2-year, Public",12025,12025,36%,10%
130800,Reedley College,"4,243,892.00","2,121,946.00","995 N Reed Ave, Reedley, California 93654","995 N Reed Ave, Reedley, California 93654, USA",36.6053908,-119.4600072,"2-year, Public",11296,11296,28%,7%
116200,Chabot College,"4,156,840.00","2,078,420.00","25555 Hesperian Blvd, Hayward, California 94545","25555 Hesperian Blvd, Hayward, California 94545, USA",37.6422086,-122.106378,"2-year, Public",13522,13522,31%,13%
125300,Fresno Pacific University,"4,121,557.00","2,060,779.00","1717 S Chestnut Ave, Fresno, California 93702-4709","1717 S Chestnut Ave, Fresno, California 93702-4709, USA",36.7254417,-119.7340528,"4-year, Private not-for-profit",4300,2947,67%,
112400,Cabrillo College,"4,027,260.00","2,013,630.00","6500 Soquel Dr, Aptos, California 95003","6500 Soquel Dr, Aptos, California 95003, USA",36.9876108,-121.9259014,"2-year, Public",11033,11033,27%,11%
1245200,Evergreen Valley College,"3,949,985.00","1,974,993.00","3095 Yerba Buena Rd, San Jose, California 95135-1598","3095 Yerba Buena Rd, San Jose, California 95135-1598, USA",37.3001189,-121.7627821,"2-year, Public",9774,9774,28%,8%
112200,Biola University,"3,922,227.00","1,961,114.00","13800 Biola Ave, La Mirada, California 90639-0001","13800 Biola Ave, La Mirada, California 90639-0001, USA",33.9055482,-118.0181345,"4-year, Private not-for-profit",6103,4043,74%,
111100,Allan Hancock College,"3,853,901.00","1,926,951.00","800 South College Drive, Santa Maria, California 93454-6399","800 South College Drive, Santa Maria, California 93454-6399, USA",34.9438546,-120.4214254,"2-year, Public",11894,11894,35%,6%
1034000,Los Medanos College,"3,838,971.00","1,919,486.00","2700 East Leland Road, Pittsburg, California 94565","2700 East Leland Road, Pittsburg, California 94565, USA",38.0053337,-121.8605006,"2-year, Public",9435,9435,33%,9%
753100,Academy Of Art University,"3,791,776.00","1,895,888.00","79 New Montgomery, San Francisco, California 94105","79 New Montgomery, San Francisco, California 94105, USA",37.7879584,-122.4004678,"4-year, Private for-profit",9812,6694,45%,14%
4037300,Los Angeles Film School (The),"3,766,527.00","1,883,264.00","6363 Sunset Blvd, Hollywood, California 90028-7318","6363 Sunset Blvd, Hollywood, California 90028-7318, USA",34.0988074,-118.3280221,"4-year, primarily associate's, Private for-profit",5151,5151,55%,13%
134400,Yuba College,"3,748,918.00","1,874,459.00","2088 N Beale Rd, Marysville, California 95901","2088 N Beale Rd, Marysville, California 95901, USA",39.1250852,-121.5384276,"2-year, Public",5626,5626,27%,10%
4173500,Moreno Valley College,"3,681,844.00","1,840,922.00","16130 Lasselle St, Moreno Valley, California 92551","16130 Lasselle St, Moreno Valley, California 92551, USA",33.8872354,-117.2031024,"2-year, Public",10635,10635,20%,7%
128900,Shasta College,"3,673,274.00","1,836,637.00","11555 Old Oregon Trail, Redding, California 96003","11555 Old Oregon Trail, Redding, California 96003, USA",40.6255265,-122.313442,"4-year, primarily associate's, Public",9307,9307,25%,12%
1014900,Pepperdine University,"3,620,831.00","1,810,416.00","24255 Pacific Coast Hwy, Malibu, California 90263","24255 Pacific Coast Hwy, Malibu, California 90263, USA",34.0390661,-118.7056781,"4-year, Private not-for-profit",8824,3583,86%,
120900,Hartnell Community College,"3,615,339.00","1,807,670.00","411 Central Avenue, Salinas, California 93901","411 Central Avenue, Salinas, California 93901, USA",36.6739532,-121.6656507,"2-year, Public",13024,13024,36%,6%
132600,Santa Clara University,"3,542,678.00","1,771,339.00","500 El Camino Real, Santa Clara, California 95053","500 El Camino Real, Santa Clara, California 95053, USA",37.3499438,-121.9406449,"4-year, Private not-for-profit",8669,5694,91%,
119200,Cuesta College,"3,527,579.00","1,763,790.00","Highway 1, San Luis Obispo, California 93403-8106","Highway 1, San Luis Obispo, California 93403-8106, USA",35.2712111,-120.6725543,"2-year, Public",11281,11281,38%,10%
1287200,North-West College,"3,525,534.00","1,762,767.00","170  W Holt Ave, Pomona, California 91768","170  W Holt Ave, Pomona, California 91768, USA",34.0621042,-117.7518601,"< 2-year, Private for-profit",187,187,41%,
4176100,Norco College,"3,523,056.00","1,761,528.00","2001 Third St, Norco, California 92860","2001 Third St, Norco, California 92860, USA",33.916817,-117.5689828,"2-year, Public",11715,11715,27%,9%
4169800,Gurnick Academy Of Medical Arts,"3,477,356.00","1,738,678.00","2121 S El Camino Real Bldg C 200, San Mateo, California 94403","2121 S El Camino Real Bldg C 200, San Mateo, California 94403, USA",37.5474855,-122.3077399,"4-year, primarily associate's, Private for-profit",2042,2042,56%,
113300,California Lutheran University,"3,451,376.00","1,725,688.00","60 W Olsen Rd, Thousand Oaks, California 91360-2787","60 W Olsen Rd, Thousand Oaks, California 91360-2787, USA",34.2253821,-118.8786129,"4-year, Private not-for-profit",4303,3078,68%,9%
132200,University Of Redlands,"3,388,020.00","1,694,010.00","1200 E. Colton Ave, Redlands, California 92373-0999","1200 E. Colton Ave, Redlands, California 92373-0999, USA",34.0623061,-117.1642828,"4-year, Private not-for-profit",4931,3206,76%,8%
3062700,Platt College,"3,330,094.00","1,665,047.00","1000 South Fremont Avenue, A10, Alhambra, California 91803","1000 South Fremont Avenue, A10, Alhambra, California 91803, USA",34.0819906,-118.1500016,"4-year, primarily associate's, Private for-profit",727,727,73%,
126600,Laney College,"3,313,469.00","1,656,735.00","900 Fallon Sreet, Oakland, California 94607","900 Fallon Sreet, Oakland, California 94607, USA",37.7945245,-122.2611597,"2-year, Public",10424,10424,24%,8%
1182000,San Diego Miramar College,"3,235,898.00","1,617,949.00","10440 Black Mountain Rd, San Diego, California 92126-2999","10440 Black Mountain Rd, San Diego, California 92126-2999, USA",32.9065169,-117.1222589,"2-year, Public",14127,14127,40%,10%
3067500,Institute Of Technology,"3,164,257.00","1,582,129.00","564  W Herndon, Clovis, California 93612","564  W Herndon, Clovis, California 93612, USA",36.8368138,-119.7233478,"2-year, Private for-profit",1310,1310,70%,
3971300,American Career College,"3,157,248.00","1,578,624.00","3130 East Sedona Court, Ontario, California 91764","3130 East Sedona Court, Ontario, California 91764, USA",34.0680921,-117.5837937,"2-year, Private for-profit",1326,1326,67%,
4169700,Unitek College,"3,157,044.00","1,578,522.00","4670 Auto Mall Pkwy, Fremont, California 94538","4670 Auto Mall Pkwy, Fremont, California 94538, USA",37.5090078,-121.9617263,"4-year, primarily associate's, Private for-profit",2147,2147,98%,
129200,Solano Community College,"3,130,214.00","1,565,107.00","4000 Suisun Valley Rd, Fairfield, California 94534-3197","4000 Suisun Valley Rd, Fairfield, California 94534-3197, USA",38.2348856,-122.1236828,"4-year, primarily associate's, Public",9330,9330,26%,10%
1284200,Oxnard College,"3,127,211.00","1,563,606.00","4000 S Rose Ave, Oxnard, California 93033-6699","4000 S Rose Ave, Oxnard, California 93033-6699, USA",34.1651566,-119.1582803,"2-year, Public",7464,7464,34%,5%
3871300,Folsom Lake College,"2,957,869.00","1,478,935.00","10 College Parkway, Folsom, California 95630","10 College Parkway, Folsom, California 95630, USA",38.661472,-121.1254873,"2-year, Public",8945,8945,34%,14%
1255000,Los Angeles Mission College,"2,940,483.00","1,470,242.00","13356 Eldridge Avenue, Sylmar, California 91342-3200","13356 Eldridge Avenue, Sylmar, California 91342-3200, USA",34.3151143,-118.4200526,"2-year, Public",10128,10128,21%,9%
2111300,Cuyamaca College,"2,918,721.00","1,459,361.00","900 Rancho San Diego Pky, El Cajon, California 92019","900 Rancho San Diego Pky, El Cajon, California 92019, USA",32.7464261,-116.939156,"2-year, Public",8697,8697,31%,12%
126200,Point Loma Nazarene University,"2,913,693.00","1,456,847.00","3900 Lomaland Dr, San Diego, California 92106-2899","3900 Lomaland Dr, San Diego, California 92106-2899, USA",32.7183123,-117.2502505,"4-year, Private not-for-profit",4567,3203,75%,22%
122400,Los Angeles Harbor College,"2,906,139.00","1,453,070.00","1111 Figueroa Place, Wilmington, California 90744-2397","1111 Figueroa Place, Wilmington, California 90744-2397, USA",33.7841,-118.2840891,"2-year, Public",8694,8694,26%,11%
126800,Porterville College,"2,896,753.00","1,448,377.00","100 E College Ave, Porterville, California 93257","100 E College Ave, Porterville, California 93257, USA",36.0489004,-119.0161748,"2-year, Public",4350,4350,35%,3%
3695700,Santiago Canyon College,"2,893,906.00","1,446,953.00","8045 E Chapman, Orange, California 92869-4512","8045 E Chapman, Orange, California 92869-4512, USA",33.7954226,-117.7667941,"2-year, Public",11911,11911,38%,13%
3035700,Las Positas College,"2,875,491.00","1,437,746.00","3000 Campus Hill Drive, Livermore, California 94551-7650","3000 Campus Hill Drive, Livermore, California 94551-7650, USA",37.7108595,-121.8004765,"2-year, Public",8706,8706,44%,14%
4253400,Clovis Community College,"2,870,984.00","1,435,492.00","10309 North Willow Avenue, Fresno, California 93730","10309 North Willow Avenue, Fresno, California 93730, USA",36.8868562,-119.7311118,"2-year, Public",8454,8454,38%,6%
2128300,Institute For Business & Technology,"2,735,892.00","1,367,946.00","2400 Walsh Avenue, Santa Clara, California 95051-1303","2400 Walsh Avenue, Santa Clara, California 95051-1303, USA",37.3686705,-121.9695286,"2-year, Private for-profit",542,542,80%,
448100,Ohlone College,"2,555,988.00","1,277,994.00","43600 Mission Blvd, Fremont, California 94539-0390","43600 Mission Blvd, Fremont, California 94539-0390, USA",37.5316572,-121.9114299,"2-year, Public",8900,8900,47%,11%
4281700,Compton College,"2,538,405.00","1,269,203.00","1111 East Artesia Blvd., Compton, California 90221-5393","1111 East Artesia Blvd., Compton, California 90221-5393, USA",33.8774168,-118.2098066,"2-year, Public",5760,5760,17%,12%
130200,Saint Mary'S College Of California,"2,525,736.00","1,262,868.00","1928 Saint Marys Road, Moraga, California 94575","1928 Saint Marys Road, Moraga, California 94575, USA",37.8414569,-122.1107267,"4-year, Private not-for-profit",3692,2646,78%,
118500,College Of The Redwoods,"2,504,489.00","1,252,245.00","7351 Tompkins Hill Rd, Eureka, California 95501-9300","7351 Tompkins Hill Rd, Eureka, California 95501-9300, USA",40.698432,-124.1953753,"2-year, Public",4665,4665,25%,14%
771300,Skyline College,"2,491,579.00","1,245,790.00","3300 College Dr, San Bruno, California 94066-1698","3300 College Dr, San Bruno, California 94066-1698, USA",37.6300571,-122.465882,"4-year, primarily associate's, Public",8803,8803,36%,8%
119000,Contra Costa College,"2,477,887.00","1,238,944.00","2600 Mission Bell Dr, San Pablo, California 94806-3195","2600 Mission Bell Dr, San Pablo, California 94806-3195, USA",37.9686416,-122.3403797,"2-year, Public",7127,7127,29%,9%
124200,Monterey Peninsula College,"2,415,633.00","1,207,817.00","980 Fremont St, Monterey, California 93940-4799","980 Fremont St, Monterey, California 93940-4799, USA",36.5893339,-121.8869455,"2-year, Public",7920,7920,31%,14%
119900,Foothill College,"2,401,437.00","1,200,719.00","12345 El Monte Rd, Los Altos Hills, California 94022","12345 El Monte Rd, Los Altos Hills, California 94022, USA",37.3614442,-122.1277782,"4-year, primarily associate's, Public",15123,15123,61%,11%
3108100,Summit College,"2,365,247.00","1,182,624.00","804 E Brier Dr, San Bernardino, California 92408","804 E Brier Dr, San Bernardino, California 92408, USA",34.0719445,-117.268177,"< 2-year, Private for-profit",1085,1085,73%,
120200,Gavilan College,"2,328,197.00","1,164,099.00","5055 Santa Teresa Blvd, Gilroy, California 95020","5055 Santa Teresa Blvd, Gilroy, California 95020, USA",36.9666134,-121.562,"2-year, Public",5573,5573,31%,13%
2531800,Paul Mitchell The School Costa Mesa,"2,289,751.00","1,144,876.00","3309 Hyland Ave., Suite J, Costa Mesa, California 92626","3309 Hyland Ave., Suite J, Costa Mesa, California 92626, USA",33.6946501,-117.9275547,"< 2-year, Private for-profit",407,407,80%,
2110800,California College San Diego,"2,281,144.00","1,140,572.00","6602 Convoy Court Ste 100, San Diego, California 92111","6602 Convoy Court Ste 100, San Diego, California 92111, USA",32.8352916,-117.1666412,"4-year, primarily associate's, Private not-for-profit",536,536,38%,1%
128200,San Jose City College,"2,274,964.00","1,137,482.00","2100 Moorpark Ave, San Jose, California 95128-2798","2100 Moorpark Ave, San Jose, California 95128-2798, USA",37.315671,-121.930156,"2-year, Public",8760,8760,28%,8%
4111300,West Hills College Lemoore,"2,260,143.00","1,130,072.00","555 College Avenue, Lemoore, California 93245","555 College Avenue, Lemoore, California 93245, USA",36.2926108,-119.8217898,"2-year, Public",4359,4359,38%,3%
704700,Los Angeles Southwest College,"2,222,854.00","1,111,427.00","1600 W. Imperial Hwy., Los Angeles, California 90047-4899","1600 W. Imperial Hwy., Los Angeles, California 90047-4899, USA",33.9288113,-118.3060819,"2-year, Public",6409,6409,15%,16%
859600,West Los Angeles College,"2,215,810.00","1,107,905.00","9000 Overland Avenue, Culver City, California 90230-3519","9000 Overland Avenue, Culver City, California 90230-3519, USA",34.0042282,-118.3871555,"4-year, primarily associate's, Public",13048,13048,17%,13%
111600,Art Center College Of Design,"2,168,231.00","1,084,116.00","1700 Lida St, Pasadena, California 91103","1700 Lida St, Pasadena, California 91103, USA",34.1687088,-118.18513,"4-year, Private not-for-profit",2335,2062,69%,
2559400,Intercoast Colleges,"2,149,757.00","1,074,879.00","1720 E. Garry Ave, Suite 103, Santa Ana, California 92705","1720 E. Garry Ave, Suite 103, Santa Ana, California 92705, USA",33.7049277,-117.8536691,"2-year, Private for-profit",226,226,60%,
121500,La Sierra University,"2,144,179.00","1,072,090.00","4500 Riverwalk Parkway, Riverside, California 92505-8247","4500 Riverwalk Parkway, Riverside, California 92505-8247, USA",33.9107229,-117.5001118,"4-year, Private not-for-profit",2159,1746,47%,
124700,Napa Valley College,"2,125,082.00","1,062,541.00","2277 Napa-Vallejo Hwy, Napa, California 94558-6236","2277 Napa-Vallejo Hwy, Napa, California 94558-6236, USA",38.2740455,-122.2751567,"2-year, Public",5292,5292,32%,10%
118100,College Of San Mateo,"2,042,860.00","1,021,430.00","1700 W Hillsdale Blvd, San Mateo, California 94402-3784","1700 W Hillsdale Blvd, San Mateo, California 94402-3784, USA",37.5350511,-122.335123,"2-year, Public",8163,8163,42%,9%
2338500,Glendale Career College,"2,025,197.00","1,012,599.00","240 North Brand Boulevard Lower Level, Glendale, California 91203","240 North Brand Boulevard Lower Level, Glendale, California 91203, USA",34.1496782,-118.2543982,"4-year, primarily associate's, Private for-profit",611,611,68%,
133800,West Valley College,"2,016,079.00","1,008,040.00","14000 Fruitvale Ave, Saratoga, California 95070-5698","14000 Fruitvale Ave, Saratoga, California 95070-5698, USA",37.2640661,-122.0108938,"2-year, Public",7619,7619,35%,13%
2119100,Mission College,"1,961,952.00","980,976.00","3000 Mission College Blvd, Santa Clara, California 95054-1897","3000 Mission College Blvd, Santa Clara, California 95054-1897, USA",37.3912164,-121.9820461,"2-year, Public",6995,6995,31%,11%
927200,Crafton Hills College,"1,933,930.00","966,965.00","11711 Sand Canyon Road, Yucaipa, California 92339-1799","11711 Sand Canyon Road, Yucaipa, California 92339-1799, USA",34.0394226,-117.1050205,"2-year, Public",6749,6749,29%,7%
1111200,Fashion Institute Of Design & Merchandising,"1,931,729.00","965,865.00","919 S Grand Ave, Los Angeles, California 90015-1421","919 S Grand Ave, Los Angeles, California 90015-1421, USA",34.0441185,-118.2600399,"4-year, primarily associate's, Private for-profit",2227,2195,71%,
129300,Vanguard University Of Southern California,"1,879,831.00","939,916.00","55 Fair Dr, Costa Mesa, California 92626","55 Fair Dr, Costa Mesa, California 92626, USA",33.6632391,-117.9013021,"4-year, Private not-for-profit",2175,1920,59%,
134200,Whittier College,"1,879,550.00","939,775.00","13406 E Philadelphia Street, Whittier, California 90601","13406 E Philadelphia Street, Whittier, California 90601, USA",33.9788103,-118.0322988,"4-year, Private not-for-profit",1841,1776,72%,
2242700,Berkeley City College,"1,844,524.00","922,262.00","2050 Center Sreet, Berkeley, California 94704","2050 Center Sreet, Berkeley, California 94704, USA",37.8699525,-122.2696176,"2-year, Public",5644,5644,38%,18%
3639300,West Coast Ultrasound Institute,"1,805,882.00","902,941.00","3580 Wilshire Blvd., 4th Floor, Los Angeles, California 90010","3580 Wilshire Blvd., 4th Floor, Los Angeles, California 90010, USA",34.0611215,-118.3028158,"4-year, primarily associate's, Private for-profit",814,814,76%,
121800,Loma Linda University,"1,777,517.00","888,759.00","11139 Anderson Street, Loma Linda, California 92350","11139 Anderson Street, Loma Linda, California 92350, USA",34.0513315,-117.2607734,"4-year, Private not-for-profit",4462,1192,,
4118800,New York Film Academy,"1,739,271.00","869,636.00","3300 West Riverside Drive, Burbank, California 91505","3300 West Riverside Drive, Burbank, California 91505, USA",34.1519315,-118.3353736,"4-year, primarily associate's, Private for-profit",1892,1312,69%,
2070500,Concordia University,"1,723,598.00","861,799.00","1530 Concordia West, Irvine, California 92612-3203","1530 Concordia West, Irvine, California 92612-3203, USA",33.6545502,-117.8123154,"4-year, Private not-for-profit",3911,1738,63%,
4143800,Woodland Community College,"1,623,074.00","811,537.00","2300 E Gibson Rd, Woodland, California 95776","2300 E Gibson Rd, Woodland, California 95776, USA",38.6604322,-121.7352197,"2-year, Public",3774,3774,24%,9%
3427500,University Of Antelope Valley,"1,613,796.00","806,898.00","44055 Sierra Highway, Lancaster, California 93534","44055 Sierra Highway, Lancaster, California 93534, USA",34.6835278,-118.1349891,"4-year, primarily associate's, Private for-profit",814,762,67%,
2542300,National Holistic Institute,"1,602,448.00","801,224.00","5900 Doyle Street, Emeryville, California 94608-2008","5900 Doyle Street, Emeryville, California 94608-2008, USA",37.8420374,-122.2878068,"< 2-year, Private for-profit",1237,1237,69%,
111900,Barstow Community College,"1,556,808.00","778,404.00","2700 Barstow Road, Barstow, California 92311","2700 Barstow Road, Barstow, California 92311, USA",34.8703181,-117.0233643,"2-year, Public",3078,3078,27%,13%
3113600,Southern California Institute Of Technology,"1,535,401.00","767,701.00","525 N. Muller Street, Anaheim, California 92801-3758","525 N. Muller Street, Anaheim, California 92801-3758, USA",33.8380876,-117.9508031,"4-year, primarily associate's, Private for-profit",607,607,78%,1%
126700,Merritt College,"1,497,283.00","748,642.00","12500 Campus Dr, Oakland, California 94619-3196","12500 Campus Dr, Oakland, California 94619-3196, USA",37.7933608,-122.1668027,"2-year, Public",6857,6857,22%,13%
128100,William Jessup University,"1,486,736.00","743,368.00","2121 University Avenue, Rocklin, California 95765-3707","2121 University Avenue, Rocklin, California 95765-3707, USA",38.8205884,-121.291831,"4-year, Private not-for-profit",1743,1261,64%,
124900,Occidental College,"1,474,674.00","737,337.00","1600 Campus Rd, Los Angeles, California 90041-3392","1600 Campus Rd, Los Angeles, California 90041-3392, USA",34.1273185,-118.2101148,"4-year, Private not-for-profit",1985,1985,86%,11%
4228100,High Desert Medical College,"1,472,341.00","736,171.00","701 West Avenue K suite 123, Lancaster, California 93534","701 West Avenue K suite 123, Lancaster, California 93534, USA",34.676102,-118.1443145,"2-year, Private for-profit",704,704,71%,
1170700,North-West College,"1,406,776.00","703,388.00","2101 W Garvey Ave, West Covina, California 91790","2101 W Garvey Ave, West Covina, California 91790, USA",34.0720389,-117.9495675,"2-year, Private for-profit",700,700,37%,
2110200,Columbia College Hollywood,"1,405,837.00","702,919.00","18618 Oxnard St, Tarzana, California 91356-1411","18618 Oxnard St, Tarzana, California 91356-1411, USA",34.1794632,-118.5388957,"4-year, Private not-for-profit",870,870,49%,
112700,California College Of The Arts,"1,397,586.00","698,793.00","1111 Eighth Street, San Francisco, California 94107-2247","1111 Eighth Street, San Francisco, California 94107-2247, USA",37.7673765,-122.399486,"4-year, Private not-for-profit",1860,1466,64%,
3889300,Stanbridge University,"1,395,629.00","697,815.00","2041 Business Ctr Dr Ste 107, Irvine, California 92612","2041 Business Ctr Dr Ste 107, Irvine, California 92612, USA",33.6788752,-117.85765,"4-year, primarily associate's, Private for-profit",1364,1171,68%,
3542400,Copper Mountain College,"1,372,962.00","686,481.00","6162 Rotary Way, Joshua Tree, California 92252","6162 Rotary Way, Joshua Tree, California 92252, USA",34.1382233,-116.2124883,"2-year, Public",1533,1533,24%,17%
117800,College Of Marin,"1,347,945.00","673,973.00","835 College Ave, Kentfield, California 94904-2590","835 College Ave, Kentfield, California 94904-2590, USA",37.9561956,-122.5495907,"2-year, Public",5182,5182,35%,14%
1167200,Mendocino College,"1,309,837.00","654,919.00","1000 Hensley Creek Road, Ukiah, California 95482","1000 Hensley Creek Road, Ukiah, California 95482, USA",39.1886846,-123.2276344,"2-year, Public",3960,3960,26%,12%
117300,Pomona College,"1,285,644.00","642,822.00","550 N College Ave, Claremont, California 91711-6319","550 N College Ave, Claremont, California 91711-6319, USA",34.099078,-117.7145536,"4-year, Private not-for-profit",1637,1637,93%,
119600,Dominican University Of California,"1,244,783.00","622,392.00","50 Acacia Ave, San Rafael, California 94901-2298","50 Acacia Ave, San Rafael, California 94901-2298, USA",37.9798523,-122.5134504,"4-year, Private not-for-profit",1878,1460,70%,25%
563800,Downey Adult School,"1,232,716.00","616,358.00","12340 Woodruff Ave, Downey, California 90241","12340 Woodruff Ave, Downey, California 90241, USA",33.918252,-118.1159254,"2-year, Public",613,613,97%,
4057300,Asher College,"1,201,948.00","600,974.00","1215 Howe Ave Suite 101, Sacramento, California 95825","1215 Howe Ave Suite 101, Sacramento, California 95825, USA",38.5876501,-121.4156208,"2-year, Private for-profit",646,646,68%,6%
134300,Woodbury University,"1,199,479.00","599,740.00","7500 Glenoaks Blvd, Burbank, California 91504-1052","7500 Glenoaks Blvd, Burbank, California 91504-1052, USA",34.2076585,-118.3412543,"4-year, Private not-for-profit",1225,1108,54%,
4161800,Brandman University,"1,196,618.00","598,309.00","16355 Laguna Canyon Road, Irvine, California 92618","16355 Laguna Canyon Road, Irvine, California 92618, USA",33.6564199,-117.7691303,"4-year, Private not-for-profit",10231,6060,60%,40%
1291200,Mti College,"1,142,459.00","571,230.00","5221 Madison Avenue, Sacramento, California 95841-9817","5221 Madison Avenue, Sacramento, California 95841-9817, USA",38.6613956,-121.3424893,"2-year, Private for-profit",756,756,65%,
125800,Pacific Union College,"1,138,223.00","569,112.00","One Angwin Ave, Angwin, California 94508-9707","One Angwin Ave, Angwin, California 94508-9707, USA",38.5698777,-122.4394834,"4-year, Private not-for-profit",909,906,57%,30%
123800,Mills College,"1,135,582.00","567,791.00","5000 MacArthur Blvd, Oakland, California 94613","5000 MacArthur Blvd, Oakland, California 94613, USA",37.7773714,-122.1842278,"4-year, Private not-for-profit",1122,723,57%,
3144400,American College Of Healthcare And Technology,"1,134,326.00","567,163.00","11801 Pierce St., Suite 100, Riverside, California 92505","11801 Pierce St., Suite 100, Riverside, California 92505, USA",33.9015972,-117.4935939,"2-year, Private for-profit",83,83,85%,
130900,Taft College,"1,122,910.00","561,455.00","29 Cougar Court, Taft, California 93268","29 Cougar Court, Taft, California 93268, USA",35.1492183,-119.4601285,"2-year, Public",5968,5968,36%,7%
117900,Notre Dame De Namur University,"1,121,450.00","560,725.00","1500 Ralston Ave, Belmont, California 94002-1908","1500 Ralston Ave, Belmont, California 94002-1908, USA",37.5173394,-122.2867436,"4-year, Private not-for-profit",1363,795,52%,39%
2596400,Spartan College Of Aeronautics & Technology,"1,117,522.00","558,761.00","8911 Aviation Blvd, Inglewood, California 90301-2904","8911 Aviation Blvd, Inglewood, California 90301-2904, USA",33.9559878,-118.377513,"2-year, Private for-profit",415,415,95%,
2482700,Western University Of Health Sciences,"1,105,699.00","552,850.00","309 E 2nd St, Pomona, California 91766-1854","309 E 2nd St, Pomona, California 91766-1854, USA",34.0581487,-117.747508,"4-year, Private not-for-profit",3792,,,
125100,Otis College Of Art & Design,"1,100,507.00","550,254.00","9045 Lincoln Blvd, Los Angeles, California 90045-3505","9045 Lincoln Blvd, Los Angeles, California 90045-3505, USA",33.9565585,-118.41636,"4-year, Private not-for-profit",1183,1125,66%,
697300,Canada College,"1,098,544.00","549,272.00","4200 Farm Hill Blvd., Redwood City, California 94061-1099","4200 Farm Hill Blvd., Redwood City, California 94061-1099, USA",37.4473861,-122.2663635,"2-year, Public",5799,5799,32%,8%
672000,College Of Alameda,"1,049,170.00","524,585.00","555 Ralph Appezzato Memorial Pky, Alameda, California 94501","555 Ralph Appezzato Memorial Pky, Alameda, California 94501, USA",37.7808735,-122.2793041,"2-year, Public",5667,5667,27%,13%
113200,California Institute Of The Arts,"1,014,886.00","507,443.00","24700 W McBean Pky, Valencia, California 91355-2397","24700 W McBean Pky, Valencia, California 91355-2397, USA",34.3927517,-118.5673382,"4-year, Private not-for-profit",1520,1021,61%,16%
770700,Columbia College,"994,576.00","497,288.00","11600 Columbia College Dr, Sonora, California 95370","11600 Columbia College Dr, Sonora, California 95370, USA",38.0305209,-120.3865357,"2-year, Public",2616,2616,25%,14%
3171300,University Of St. Augustine For Health Sciences,"993,092.00","496,546.00","700 Windy Point Drive, San Marcos, California 92069","700 Windy Point Drive, San Marcos, California 92069, USA",33.1518924,-117.1659041,"4-year, Private for-profit",4353,,,
853700,Concorde Career College,"982,367.00","491,184.00","201 East Airport Drive, Suite A, San Bernardino, California 92408-3403","201 East Airport Drive, Suite A, San Bernardino, California 92408-3403, USA",34.0667834,-117.2840338,"2-year, Private for-profit",572,572,77%,
113400,California State University Maritime Academy,"977,757.00","488,879.00","200 Maritime Academy Dr, Vallejo, California 94590-8181","200 Maritime Academy Dr, Vallejo, California 94590-8181, USA",38.0692105,-122.2325063,"4-year, Public",941,911,67%,4%
134100,Westmont College,"950,992.00","475,496.00","955 La Paz Rd, Santa Barbara, California 93108-1089","955 La Paz Rd, Santa Barbara, California 93108-1089, USA",34.450362,-119.6615508,"4-year, Private not-for-profit",1317,1317,79%,19%
122000,Master'S University And Seminary (The),"936,440.00","468,220.00","21726 Placerita Canyon Road, Santa Clarita, California 91321-1200","21726 Placerita Canyon Road, Santa Clarita, California 91321-1200, USA",34.3817734,-118.5175513,"4-year, Private not-for-profit",2006,1305,70%,5%
2343400,Bellus Academy,"915,623.00","457,812.00","13266 Poway Rd, Poway, California 92064","13266 Poway Rd, Poway, California 92064, USA",32.9571791,-117.0425569,"2-year, Private for-profit",372,372,80%,
2497300,Milan Institute,"914,326.00","457,163.00","6500 S. Mooney Blvd., Visalia, California 93277","6500 S. Mooney Blvd., Visalia, California 93277, USA",36.2715464,-119.3118755,"< 2-year, Private for-profit",395,395,79%,
1011100,Cerro Coso Community College,"908,958.00","454,479.00","3000 College Heights Blvd, Ridgecrest, California 93555-9571","3000 College Heights Blvd, Ridgecrest, California 93555-9571, USA",35.5673364,-117.670908,"2-year, Public",5607,5607,25%,9%
113100,California Institute Of Technology,"908,781.00","454,391.00","1200 E California Blvd, Pasadena, California 91125","1200 E California Blvd, Pasadena, California 91125, USA",34.1356666,-118.12724,"4-year, Private not-for-profit",2237,938,94%,4%
2553600,Diversified Vocational College,"908,774.00","454,387.00","1670 Wilshire Blvd, Los Angeles, California 90017-1604","1670 Wilshire Blvd, Los Angeles, California 90017-1604, USA",34.0561128,-118.2724303,"< 2-year, Private for-profit",580,580,50%,
4181200,Southern California Health Institute (Sochi),"902,290.00","451,145.00","5644 Vineland Ave, North Hollywood, California 91601","5644 Vineland Ave, North Hollywood, California 91601, USA",34.1734875,-118.3700264,"< 2-year, Private for-profit",301,301,75%,
118300,Holy Names University,"895,448.00","447,724.00","3500 Mountain Blvd, Oakland, California 94619-1699","3500 Mountain Blvd, Oakland, California 94619-1699, USA",37.8029258,-122.186977,"4-year, Private not-for-profit",966,669,48%,4%
129100,Simpson University,"892,430.00","446,215.00","2211 College View Drive, Redding, California 96003-8606","2211 College View Drive, Redding, California 96003-8606, USA",40.6144049,-122.3322752,"4-year, Private not-for-profit",854,702,45%,25%
793000,Concorde Career College,"887,365.00","443,683.00","4393 Imperial Avenue, Suite 100, San Diego, California 92113-1964","4393 Imperial Avenue, Suite 100, San Diego, California 92113-1964, USA",32.7027264,-117.1028052,"2-year, Private for-profit",730,730,77%,
3973300,Sae  Expression College,"875,264.00","437,632.00","6601 Shellmond St, Emeryville, California 94608","6601 Shellmond St, Emeryville, California 94608, USA",37.8476192,-122.2954704,"4-year, Private for-profit",583,583,57%,
1047400,Marymount California University,"874,466.00","437,233.00","30800 Palos Verdes Drive East, Rancho Palos Verdes, California 90275-6299","30800 Palos Verdes Drive East, Rancho Palos Verdes, California 90275-6299, USA",33.7344926,-118.3337755,"4-year, Private not-for-profit",647,602,33%,26%
131900,"University Of California, San Francisco","867,955.00","433,978.00","500 Parnassus Ave, San Francisco, California 94143-0244","500 Parnassus Ave, San Francisco, California 94143-0244, USA",37.7640712,-122.4585776,"4-year, Public",3180,,,
760700,Concorde Career College,"861,408.00","430,704.00","12412 Victory Boulevard, North Hollywood, California 91606-3134","12412 Victory Boulevard, North Hollywood, California 91606-3134, USA",34.1863481,-118.4035766,"2-year, Private for-profit",601,601,73%,
807100,Concorde Career College,"857,787.00","428,894.00","12951 Euclid Street, Suite 101, Garden Grove, California 92840-9201","12951 Euclid Street, Suite 101, Garden Grove, California 92840-9201, USA",33.7745947,-117.9384861,"2-year, Private for-profit",589,589,82%,
117000,Claremont Mckenna College,"855,579.00","427,790.00","500 E 9th St, Claremont, California 91711-6400","500 E 9th St, Claremont, California 91711-6400, USA",34.1020742,-117.7064979,"4-year, Private not-for-profit",1346,1343,91%,
2161800,Musicians Institute,"854,505.00","427,253.00","6752 Hollywood Blvd., Hollywood, California 90028","6752 Hollywood Blvd., Hollywood, California 90028, USA",34.1012342,-118.3375983,"4-year, primarily associate's, Private for-profit",1022,1022,62%,
701200,Samuel Merritt University,"841,525.00","420,763.00","3100 Telegraph Avenue, Oakland, California 94609","3100 Telegraph Avenue, Oakland, California 94609, USA",37.8202782,-122.2663192,"4-year, Private not-for-profit",2029,768,,
4142600,Touro University,"797,347.00","398,674.00","1310 Club Drive, Vallejo, California 94592","1310 Club Drive, Vallejo, California 94592, USA",38.0853159,-122.2641306,"4-year, Private not-for-profit",1378,,,
2577900,Santa Barbara Business College,"786,894.00","393,447.00","5300 California Avenue, Bakersfield, California 93309","5300 California Avenue, Bakersfield, California 93309, USA",35.3599747,-119.0611856,"4-year, primarily associate's, Private for-profit",309,308,56%,2%
118700,College Of The Siskiyous,"785,260.00","392,630.00","800 College Ave, Weed, California 96094-2899","800 College Ave, Weed, California 96094-2899, USA",41.4126153,-122.3893698,"2-year, Public",1761,1761,20%,18%
2155300,Chicago School Of Professional Psychology,"756,112.00","378,056.00","707 Wilshire Boulevard, Los Angeles, California 90017","707 Wilshire Boulevard, Los Angeles, California 90017, USA",34.0492187,-118.2570021,"4-year, Private not-for-profit",2999,180,,
4152800,Paul Mitchell The School Sacramento,"750,351.00","375,176.00","2100 Arden Way Ste 265, Sacramento, California 95825","2100 Arden Way Ste 265, Sacramento, California 95825, USA",38.595751,-121.416237,"< 2-year, Private for-profit",274,274,75%,
3125800,Premiere Career College,"747,470.00","373,735.00","12901 Ramona Blvd, Irwindale, California 91706-3746","12901 Ramona Blvd, Irwindale, California 91706-3746, USA",34.0797733,-117.9908857,"2-year, Private for-profit",329,329,81%,
123600,Menlo College,"744,390.00","372,195.00","1000 El Camino Real, Atherton, California 94027-4301","1000 El Camino Real, Atherton, California 94027-4301, USA",37.4562115,-122.1923422,"4-year, Private not-for-profit",894,894,58%,
4167000,Paul Mitchell The School Temecula,"725,475.00","362,738.00","27536 Ynez Rd Ste E-1, Temecula, California 92591","27536 Ynez Rd Ste E-1, Temecula, California 92591, USA",33.5074165,-117.1466042,"< 2-year, Private for-profit",288,288,70%,
117700,Cogswell Polytechnical College,"701,472.00","350,736.00","191 Baypointe Parkway, San Jose, California 95134","191 Baypointe Parkway, San Jose, California 95134, USA",37.4140248,-121.9408227,"4-year, Private for-profit",552,542,55%,14%
125200,Hope International University,"681,856.00","340,928.00","2500 E Nutwood Ave, Fullerton, California 92831-3199","2500 E Nutwood Ave, Fullerton, California 92831-3199, USA",33.8764863,-117.884986,"4-year, Private not-for-profit",1130,633,54%,29%
1111700,Alliant International University,"679,282.00","339,641.00","10455 Pomerado Road, San Diego, California 92131","10455 Pomerado Road, San Diego, California 92131, USA",32.8965805,-117.0944537,"4-year, Private for-profit",3536,631,16%,
2330500,Laguna College Of Art And Design,"661,479.00","330,740.00","2222 Laguna Canyon Rd, Laguna Beach, California 92651","2222 Laguna Canyon Rd, Laguna Beach, California 92651, USA",33.56135,-117.7726345,"4-year, Private not-for-profit",834,784,57%,
2063500,Coastline Community College,"634,209.00","317,105.00","11460 Warner Ave., Fountain Valley, California 92708-2597","11460 Warner Ave., Fountain Valley, California 92708-2597, USA",33.7156586,-117.9292023,"2-year, Public",10822,10822,23%,10%
117200,Pitzer College,"625,861.00","312,931.00","1050 North Mills Avenue, Claremont, California 91711-6101","1050 North Mills Avenue, Claremont, California 91711-6101, USA",34.1036159,-117.7038664,"4-year, Private not-for-profit",1086,1086,85%,
2270600,Life Pacific University,"606,084.00","303,042.00","1100 W. Covina Blvd., San Dimas, California 91773-3298","1100 W. Covina Blvd., San Dimas, California 91773-3298, USA",34.0987652,-117.829457,"4-year, Private not-for-profit",552,459,45%,
902200,Associated Technical College,"602,768.00","301,384.00","1670 Wilshire Blvd, Los Angeles, California 90017-1604","1670 Wilshire Blvd, Los Angeles, California 90017-1604, USA",34.0561128,-118.2724303,"< 2-year, Private for-profit",335,335,52%,
859700,Feather River College,"599,153.00","299,577.00","570 Golden Eagle Ave, Quincy, California 95971-9124","570 Golden Eagle Ave, Quincy, California 95971-9124, USA",39.9521546,-120.9643281,"4-year, primarily associate's, Public",2058,2058,27%,42%
4195400,Unitek College,"598,178.00","299,089.00","21615 Hesperian Boulevard, Hayward, California 94541-7026","21615 Hesperian Boulevard, Hayward, California 94541-7026, USA",37.6605785,-122.1157851,"< 2-year, Private for-profit",153,153,84%,
117600,West Hills Community College,"592,666.00","296,333.00","300 Cherry Lane, Coalinga, California 93210","300 Cherry Lane, Coalinga, California 93210, USA",36.1478043,-120.3570364,"2-year, Public",4198,4198,30%,13%
4141400,Laurus College,"591,076.00","295,538.00","81 Higuera St Ste 110, San Luis Obispo, California 93401","81 Higuera St Ste 110, San Luis Obispo, California 93401, USA",35.2682325,-120.6702264,"4-year, primarily associate's, Private for-profit",878,878,82%,3%
4146000,National Career College,"589,577.00","294,789.00","14355 Roscoe Blvd, Panorama City, California 91402","14355 Roscoe Blvd, Panorama City, California 91402, USA",34.2224849,-118.4461963,"2-year, Private for-profit",317,317,69%,
4003300,Blake Austin College,"581,595.00","290,798.00","611 Orange Dr Ste K, Vacaville, California 95687","611 Orange Dr Ste K, Vacaville, California 95687, USA",38.378565,-121.945434,"< 2-year, Private for-profit",337,337,24%,2%
3440400,Marian Health Careers Center,"575,634.00","287,817.00","3325 Wilshire Blvd Ste 1010, Los Angeles, California 90010","3325 Wilshire Blvd Ste 1010, Los Angeles, California 90010, USA",34.06206,-118.294931,"< 2-year, Private for-profit",210,210,55%,
4115600,Mayfield College,"564,629.00","282,315.00","35-325 Date Palm Dr Ste 101, Cathedral City, California 92234","35-325 Date Palm Dr Ste 101, Cathedral City, California 92234, USA",33.79085,-116.4585217,"2-year, Private for-profit",468,468,84%,
3027700,Pacific College Of Oriental Medicine,"561,804.00","280,902.00","7445 Mission Valley Rd Ste 105, San Diego, California 92108-4407","7445 Mission Valley Rd Ste 105, San Diego, California 92108-4407, USA",32.7783555,-117.160391,"4-year, Private for-profit",1036,185,40%,
4162800,Paul Mitchell The School Modesto,"553,609.00","276,805.00","3100 McHenry Ave, Modesto, California 95350","3100 McHenry Ave, Modesto, California 95350, USA",37.6830038,-120.9936468,"< 2-year, Private for-profit",298,298,76%,
3043900,Newschool Of Architecture And Design,"553,090.00","276,545.00","1249 F St, San Diego, California 92101","1249 F St, San Diego, California 92101, USA",32.7133097,-117.15344,"4-year, Private for-profit",497,394,43%,
2185800,Moler Barber College,"551,182.00","275,591.00","3815 Telegraph Ave, Oakland, California 94609-2419","3815 Telegraph Ave, Oakland, California 94609-2419, USA",37.8270677,-122.2653666,"< 2-year, Private for-profit",279,279,63%,3%
4165900,Paul Mitchell The School Fresno,"550,245.00","275,123.00","5091 N Fresno Street Ste 104, Fresno, California 93710","5091 N Fresno Street Ste 104, Fresno, California 93710, USA",36.8096215,-119.7821425,"< 2-year, Private for-profit",311,311,74%,
3098700,Milan Institute,"549,033.00","274,517.00","75-030 Gerald Ford Drive, Suite 203, Palm Desert, California 92211","75-030 Gerald Ford Drive, Suite 203, Palm Desert, California 92211, USA",33.7833639,-116.353262,"< 2-year, Private for-profit",139,139,55%,
1186600,Lu Ross Academy,"547,287.00","273,644.00","470 East Thompson Blvd, Ventura, California 93001-2729","470 East Thompson Blvd, Ventura, California 93001-2729, USA",34.2780628,-119.2939498,"< 2-year, Private for-profit",215,215,68%,
117400,Scripps College,"546,083.00","273,042.00","1030 North Columbia Avenue, Claremont, California 91711-3905","1030 North Columbia Avenue, Claremont, California 91711-3905, USA",34.1033704,-117.7113434,"4-year, Private not-for-profit",1109,1089,90%,
2255400,Toni&Guy Hairdressing Academy,"545,266.00","272,633.00","464 N. Fairfax Ave, Los Angeles, California 90036","464 N. Fairfax Ave, Los Angeles, California 90036, USA",34.0799203,-118.3611276,"< 2-year, Private for-profit",191,191,64%,
1309500,Salon Success Academy,"543,888.00","271,944.00","2097 Compton Ave. Suite 201, Corona, California 92881","2097 Compton Ave. Suite 201, Corona, California 92881, USA",33.847654,-117.5357363,"< 2-year, Private for-profit",116,116,94%,
705000,Bellus Academy,"539,166.00","269,583.00","970 Broadway, Suite 110, Chula Vista, California 91911","970 Broadway, Suite 110, Chula Vista, California 91911, USA",32.6146911,-117.0837293,"2-year, Private for-profit",239,239,70%,
725300,Federico Beauty Institute,"538,895.00","269,448.00","1515 Sports Drive    Ste 100, Sacramento, California 95834","1515 Sports Drive    Ste 100, Sacramento, California 95834, USA",38.6488954,-121.4976541,"< 2-year, Private for-profit",326,326,78%,
117100,Harvey Mudd College,"516,332.00","258,166.00","301 Platt Blvd., Claremont, California 91711","301 Platt Blvd., Claremont, California 91711, USA",34.1059342,-117.7072802,"4-year, Private not-for-profit",904,904,92%,6%
4240200,Aviation Institute Of Maintenance,"512,166.00","256,083.00","420 Whitney Place, Freemont, California 94539","420 Whitney Place, Freemont, California 94539, USA",37.46906,-121.9209495,"2-year, Private for-profit",278,278,65%,
4180000,Cinta Aveda Institute,"493,584.00","246,792.00","305 Kearny Street, San Francisco, California 94108-3204","305 Kearny Street, San Francisco, California 94108-3204, USA",37.7909576,-122.4042735,"< 2-year, Private for-profit",268,268,70%,
903200,Empire College,"490,975.00","245,488.00","3035 Cleveland Ave, Santa Rosa, California 95403-2126","3035 Cleveland Ave, Santa Rosa, California 95403-2126, USA",38.4680351,-122.729328,"4-year, primarily associate's, Private for-profit",371,299,57%,
120500,Golden Gate University,"464,148.00","232,074.00","536 Mission Street, San Francisco, California 94105-2968","536 Mission Street, San Francisco, California 94105-2968, USA",37.7893124,-122.3990296,"4-year, Private not-for-profit",2432,511,,
3736300,Advance Beauty College,"458,495.00","229,248.00","10121 Westminster Ave, Garden Grove, California 92843","10121 Westminster Ave, Garden Grove, California 92843, USA",33.7599147,-117.9526793,"< 2-year, Private for-profit",507,507,92%,
4158200,Paul Mitchell The School Sherman Oaks,"446,039.00","223,020.00","15301 Ventura Blvd Unit P2, Sherman Oaks, California 91403","15301 Ventura Blvd Unit P2, Sherman Oaks, California 91403, USA",34.1562003,-118.4670526,"< 2-year, Private for-profit",267,267,76%,
720300,Salon Success Academy,"434,633.00","217,317.00","1385 E. Foothill Blvd, Upland, California 91786","1385 E. Foothill Blvd, Upland, California 91786, USA",34.107295,-117.6309882,"< 2-year, Private for-profit",164,164,73%,
3590400,Ntma Training Centers Of Southern California,"427,969.00","213,985.00","12131 Telegraph Road, Santa Fe Springs, California 90670","12131 Telegraph Road, Santa Fe Springs, California 90670, USA",33.9429194,-118.0743446,"< 2-year, Private not-for-profit",146,146,82%,
1203100,San Diego Christian College,"421,905.00","210,953.00","200 Riverview Parkway, Santee, California 92071","200 Riverview Parkway, Santee, California 92071, USA",32.8424439,-116.9783896,"4-year, Private not-for-profit",551,488,53%,
122900,Southern California University Of Health Sciences,"401,546.00","200,773.00","16200 East Amber Valley Drive, Whittier, California 90604","16200 East Amber Valley Drive, Whittier, California 90604, USA",33.9228687,-117.983086,"4-year, Private not-for-profit",1386,746,,
121200,Humphreys University,"398,142.00","199,071.00","6650 Inglewood Ave, Stockton, California 95207-3896","6650 Inglewood Ave, Stockton, California 95207-3896, USA",38.010932,-121.316155,"4-year, Private not-for-profit",486,309,44%,28%
2591600,North-West College,"393,842.00","196,921.00","14540 Haynes, Van Nuys, California 91411","14540 Haynes, Van Nuys, California 91411, USA",34.189507,-118.4501658,"< 2-year, Private for-profit",198,198,9%,
565500,Hacienda La Puente Adult Education,"388,304.00","194,152.00","14101 E. Nelson Ave, La Puente, California 91746-0002","14101 E. Nelson Ave, La Puente, California 91746-0002, USA",34.045425,-117.9792416,"2-year, Public",812,812,91%,
3225300,American University Of Health Sciences,"384,752.00","192,376.00","1600 East Hill St, Signal Hill, California 90755-3612","1600 East Hill St, Signal Hill, California 90755-3612, USA",33.7968545,-118.1713735,"4-year, Private for-profit",384,359,33%,
2277400,South Coast College,"366,087.00","183,044.00","2011 W. Chapman Avenue, Orange, California 92868-2609","2011 W. Chapman Avenue, Orange, California 92868-2609, USA",33.7883358,-117.8740446,"2-year, Private for-profit",226,226,33%,10%
950900,Charles A. Jones Career And Education Center,"365,709.00","182,855.00","5451 Lemon Hill Ave, Sacramento, California 95824-1529","5451 Lemon Hill Ave, Sacramento, California 95824-1529, USA",38.5161,-121.4407358,"2-year, Public",243,243,82%,
1036500,Charles R. Drew University Of Medicine And Science,"360,477.00","180,239.00","1731 E 120th St, Los Angeles, California 90059","1731 E 120th St, Los Angeles, California 90059, USA",33.9254883,-118.2428859,"4-year, Private not-for-profit",748,198,75%,
4175200,Paul Mitchell The School East Bay,"355,653.00","177,827.00","100 Crescent Dr., Suite D, Pleasant Hill, California 94523","100 Crescent Dr., Suite D, Pleasant Hill, California 94523, USA",37.944972,-122.0615187,"< 2-year, Private for-profit",128,128,66%,
4138700,Paul Mitchell The School - Pasadena,"354,896.00","177,448.00","825 E Green Street, Pasadena, California 91101","825 E Green Street, Pasadena, California 91101, USA",34.1446757,-118.1333132,"< 2-year, Private for-profit",237,237,92%,
2358000,Thomas Aquinas College,"354,873.00","177,437.00","10,000 Ojai Road, Santa Paula, California 93060","10,000 Ojai Road, Santa Paula, California 93060, USA",34.429105,-119.086685,"4-year, Private not-for-profit",439,439,84%,
1215400,California Institute Of Integral Studies,"352,356.00","176,178.00","1453 Mission Street, San Francisco, California 94103","1453 Mission Street, San Francisco, California 94103, USA",37.7745275,-122.4163091,"4-year, Private not-for-profit",1476,69,,
3814400,Soka University Of America,"351,126.00","175,563.00","1 University Drive, Aliso Viejo, California 92656-8081","1 University Drive, Aliso Viejo, California 92656-8081, USA",33.5547982,-117.7352081,"4-year, Private not-for-profit",419,406,89%,
125900,Palo Verde College,"349,166.00","174,583.00","One College Drive, Blythe, California 92225","One College Drive, Blythe, California 92225, USA",33.6619253,-114.652572,"2-year, Public",4540,4540,33%,7%
1290700,Lake Tahoe Community College,"348,926.00","174,463.00","One College Drive, South Lake Tahoe, California 96150","One College Drive, South Lake Tahoe, California 96150, USA",38.9269827,-119.9727982,"2-year, Public",2577,2577,29%,25%
4193700,John Paul The Great Catholic University,"343,805.00","171,903.00","155 W. Grand Ave, Escondido, California 92025","155 W. Grand Ave, Escondido, California 92025, USA",33.1208546,-117.0824192,"4-year, Private not-for-profit",278,272,58%,
125500,Pacific Oaks College,"340,238.00","170,119.00","45 W Eureka Street, Pasadena, California 91103","45 W Eureka Street, Pasadena, California 91103, USA",34.1533051,-118.1512735,"4-year, Private not-for-profit",1163,494,,
2075800,Southern California Institute Of Architecture (The),"339,620.00","169,810.00","960 E. 3rd Street, Los Angeles, California 90013-1822","960 E. 3rd Street, Los Angeles, California 90013-1822, USA",34.0440447,-118.2327892,"4-year, Private not-for-profit",497,240,94%,
4259800,California Institute Of Arts & Technology,"338,044.00","169,022.00","2820 Camino Del Rio South Suite 100, San Diego, California 92108-3822","2820 Camino Del Rio South Suite 100, San Diego, California 92108-3822, USA",32.7708335,-117.1340387,"2-year, Private for-profit",372,372,,
121700,Lassen College,"335,004.00","167,502.00","478-200 Hwy 139, Susanville, California 96130","478-200 Hwy 139, Susanville, California 96130, USA",40.429826,-120.63056,"2-year, Public",2526,2526,24%,23%
4132700,Healthcare Career College,"331,157.00","165,579.00","8527 Alondra Blvd, #174, Paramount, California 90723-5258","8527 Alondra Blvd, #174, Paramount, California 90723-5258, USA",33.8900218,-118.150074,"2-year, Private for-profit",333,333,95%,
2064300,Sierra College Of Beauty,"321,871.00","160,936.00","1340 W 18th St, Merced, California 95340","1340 W 18th St, Merced, California 95340, USA",37.3069295,-120.4959268,"< 2-year, Private for-profit",138,138,90%,1%
4164400,Angeles Institute,"319,593.00","159,797.00","17100 PIONEER BLVD, SUITE 170, ARTESIA, California 90701-2713","17100 PIONEER BLVD, SUITE 170, ARTESIA, California 90701-2713, USA",33.8757805,-118.0807641,"< 2-year, Private for-profit",84,84,29%,
3067400,Baldwin Park Adult School,"319,015.00","159,508.00","4640 N. Maine Ave, Baldwin Park, California 91706-4221","4640 N. Maine Ave, Baldwin Park, California 91706-4221, USA",34.0965904,-117.9592983,"< 2-year, Public",305,305,76%,
4208900,Advanced Career Institute,"311,065.00","155,533.00","1728 North Kelsey Street, Visalia, California 93291","1728 North Kelsey Street, Visalia, California 93291, USA",36.3447661,-119.3850896,"< 2-year, Private for-profit",637,637,80%,
1202600,Bellus Academy,"310,881.00","155,441.00","1073 E Main St, El Cajon, California 92021","1073 E Main St, El Cajon, California 92021, USA",32.7940407,-116.946059,"2-year, Private for-profit",200,200,78%,
697500,Lincoln University,"310,107.00","155,054.00","401 15th Street, Oakland, California 94612-2801","401 15th Street, Oakland, California 94612-2801, USA",37.8047231,-122.2696866,"4-year, Private not-for-profit",475,95,78%,22%
3935300,California Nurses Educational Institute,"309,864.00","154,932.00","5200 E. Ramon Rd. Suite I-1, Palm Springs, California 92264","5200 E. Ramon Rd. Suite I-1, Palm Springs, California 92264, USA",33.8162292,-116.4919114,"< 2-year, Private for-profit",217,217,82%,
4149700,Homestead Schools,"309,756.00","154,878.00","23800 Hawthorne Blvd. Ste 200, Torrance, California 90505","23800 Hawthorne Blvd. Ste 200, Torrance, California 90505, USA",33.809088,-118.350134,"4-year, primarily associate's, Private not-for-profit",182,182,83%,
2138300,Palo Alto University,"303,711.00","151,856.00","1791 Arastradero Rd, Palo Alto, California 94304-1337","1791 Arastradero Rd, Palo Alto, California 94304-1337, USA",37.3820465,-122.1870435,"4-year, Private not-for-profit",1075,68,,
3063400,Modern Technology School,"300,190.00","150,095.00","16560 Harbor Blvd., Suite K, Fountain Valley, California 92708-9821","16560 Harbor Blvd., Suite K, Fountain Valley, California 92708-9821, USA",33.7231285,-117.9189045,"2-year, Private for-profit",95,95,89%,
116900,Claremont Graduate University,"295,107.00","147,554.00","150 E Tenth St, Claremont, California 91711-6160","150 E Tenth St, Claremont, California 91711-6160, USA",34.1030004,-117.7143271,"4-year, Private not-for-profit",1950,,,
998900,California Aeronautical University,"294,711.00","147,356.00","1450 Boughton Drive, Bakersfield, California 93308","1450 Boughton Drive, Bakersfield, California 93308, USA",35.4341869,-119.0506421,"4-year, primarily associate's, Private for-profit",230,224,23%,
120000,Fuller Theological Seminary,"293,342.00","146,671.00","135 N Oakland Ave, Pasadena, California 91182","135 N Oakland Ave, Pasadena, California 91182, USA",34.148218,-118.1404603,"4-year, Private not-for-profit",2265,,,
4141300,San Francisco Institute Of Esthetics & Cosmetology,"291,524.00","145,762.00","1067 Folsom St, San Francisco, California 94103","1067 Folsom St, San Francisco, California 94103, USA",37.7770726,-122.4070613,"< 2-year, Private for-profit",174,174,63%,
2258600,Avalon School Of Cosmetology,"288,531.00","144,266.00","2318 Central Avenue, Alameda, California 94501","2318 Central Avenue, Alameda, California 94501, USA",37.7643204,-122.2434211,"< 2-year, Private for-profit",47,47,67%,
4237100,Salon Professional Academy (The),"287,982.00","143,991.00","1600 Saratoga Avenue, Suite 103, San Jose, California 95129-5101","1600 Saratoga Avenue, Suite 103, San Jose, California 95129-5101, USA",37.2920045,-121.9894762,"< 2-year, Private for-profit",174,174,83%,
2262400,Yeshiva Ohr Elchonon Chabad - West Coast Talmudical Seminary,"286,933.00","143,467.00","7215 Waring Ave, Los Angeles, California 90046-7660","7215 Waring Ave, Los Angeles, California 90046-7660, USA",34.085421,-118.3465144,"4-year, Private not-for-profit",138,138,49%,22%
3299300,Pacific College,"283,666.00","141,833.00","3160 Red Hill Ave, Costa Mesa, California 92626","3160 Red Hill Ave, Costa Mesa, California 92626, USA",33.6800845,-117.8733121,"4-year, primarily associate's, Private for-profit",255,255,46%,10%
394800,San Francisco Art Institute,"283,166.00","141,583.00","800 Chestnut St, San Francisco, California 94133-2299","800 Chestnut St, San Francisco, California 94133-2299, USA",37.8038552,-122.4172161,"4-year, Private not-for-profit",332,220,46%,
3868400,Los Angeles College Of Music,"279,751.00","139,876.00","300 S Fair Oaks Ave, Pasadena, California 91105","300 S Fair Oaks Ave, Pasadena, California 91105, USA",34.1403478,-118.150074,"4-year, Private for-profit",288,288,47%,
3039900,Fremont College,"277,847.00","138,924.00","18000 Studebaker Road Suite 900A, Cerritos, California 90703","18000 Studebaker Road Suite 900A, Cerritos, California 90703, USA",33.868549,-118.0970425,"4-year, primarily associate's, Private for-profit",191,191,52%,
1301000,Lancaster Beauty School,"276,907.00","138,454.00","44646 N 10th St W, Lancaster, California 93534","44646 N 10th St W, Lancaster, California 93534, USA",34.6951487,-118.1477175,"< 2-year, Private for-profit",134,134,86%,
394700,"University Of California, Hastings College Of The Law","276,618.00","138,309.00","200 McAllister Street, San Francisco, California 94102-4978","200 McAllister Street, San Francisco, California 94102-4978, USA",37.7811659,-122.4158445,"4-year, Public",979,,,
3695300,Community Enhancement Services,"267,036.00","133,518.00","401 S. Glenoaks Blvd. Suite 211, Burbank, California 91502-2750","401 S. Glenoaks Blvd. Suite 211, Burbank, California 91502-2750, USA",34.180446,-118.303324,"< 2-year, Private not-for-profit",126,126,67%,
3458300,My Le'S Beauty College,"266,867.00","133,434.00","4516 Florin Road, Sacramento, California 95823-2513","4516 Florin Road, Sacramento, California 95823-2513, USA",38.4949986,-121.452293,"< 2-year, Private for-profit",254,254,94%,
4092400,Make-Up Designory,"258,613.00","129,307.00","129 S. San Fernando Blvd., Burbank, California 91502","129 S. San Fernando Blvd., Burbank, California 91502, USA",34.1801997,-118.3083404,"< 2-year, Private for-profit",262,262,91%,
4221900,California Technical Academy,"255,559.00","127,780.00","1285 Columbia Ave, Riverside, California 92507","1285 Columbia Ave, Riverside, California 92507, USA",34.0027151,-117.3392057,"< 2-year, Private for-profit",715,715,88%,
3116600,East San Gabriel Valley Rop And Technical Center,"255,012.00","127,506.00","1501 W Del Norte St., West Covina, California 91790","1501 W Del Norte St., West Covina, California 91790, USA",34.0767725,-117.937097,"2-year, Public",108,108,83%,
127800,San Francisco Conservatory Of Music,"249,016.00","124,508.00","50 Oak Street, San Francisco, California 94102-6011","50 Oak Street, San Francisco, California 94102-6011, USA",37.7755638,-122.4204101,"4-year, Private not-for-profit",452,233,61%,
4259700,University Of Saint Katherine,"246,937.00","123,469.00","1637 Capalina Road, San Marcos, California 92069","1637 Capalina Road, San Marcos, California 92069, USA",33.1512468,-117.1965733,"4-year, Private not-for-profit",235,235,7%,5%
3532400,Ata College,"246,006.00","123,003.00","1810 Gillespie Way, Suite 104, El Cajon, California 92020","1810 Gillespie Way, Suite 104, El Cajon, California 92020, USA",32.8190077,-116.9817959,"2-year, Private for-profit",82,82,93%,
3029600,Pomona Adult School,"245,993.00","122,997.00","1515 W Mission Blvd, Pomona, California 91766-1233","1515 W Mission Blvd, Pomona, California 91766-1233, USA",34.0548572,-117.7726574,"< 2-year, Public",138,138,41%,
2285100,Hilltop Beauty School,"243,264.00","121,632.00","6317 Mission St, Daly City, California 94014","6317 Mission St, Daly City, California 94014, USA",37.7054739,-122.4614193,"< 2-year, Private for-profit",111,111,57%,
2553500,Associated Technical College,"243,114.00","121,557.00","2650 Camino Del Rio North, Ste. 100, San Diego, California 92108-1630","2650 Camino Del Rio North, Ste. 100, San Diego, California 92108-1630, USA",32.7730521,-117.1351761,"< 2-year, Private for-profit",85,85,72%,
2543400,Brownson Technical School,"241,003.00","120,502.00","1110 Technology Cir Ste D, Anaheim, California 92805","1110 Technology Cir Ste D, Anaheim, California 92805, USA",33.8190162,-117.9059512,"< 2-year, Private for-profit",53,53,85%,
4211900,Xavier College School Of Nursing,"238,863.00","119,432.00","1340 North El Dorado Street, Stockton, California 95202-1017","1340 North El Dorado Street, Stockton, California 95202-1017, USA",37.9663118,-121.2932577,"< 2-year, Private for-profit",81,81,93%,
4160400,Angeles College,"237,819.00","118,910.00","3440 Wilshire Blvd Ste 310, Los Angeles, California 90010","3440 Wilshire Blvd Ste 310, Los Angeles, California 90010, USA",34.061426,-118.2990203,"4-year, primarily associate's, Private for-profit",267,267,78%,
1186500,California Hair Design Academy,"237,120.00","118,560.00","8011 University Avenue, Suite A-2, La Mesa, California 91942-5055","8011 University Avenue, Suite A-2, La Mesa, California 91942-5055, USA",32.765421,-117.024054,"< 2-year, Private for-profit",128,128,64%,12%
4092300,Coastline Beauty College,"236,995.00","118,498.00","16151 Harbor Blvd, Fountain Valley, California 92708","16151 Harbor Blvd, Fountain Valley, California 92708, USA",33.7287565,-117.9215591,"< 2-year, Private for-profit",172,172,94%,
4115300,Coachella Valley Beauty College,"233,574.00","116,787.00","79450 Highway 111, La Quinta, California 92253","79450 Highway 111, La Quinta, California 92253, USA",33.70809,-116.2784275,"< 2-year, Private for-profit",58,58,59%,
1298400,Professional Institute Of Beauty,"233,396.00","116,698.00","10801 E. Valley Mall, El Monte, California 91731","10801 E. Valley Mall, El Monte, California 91731, USA",34.0756356,-118.0389637,"< 2-year, Private for-profit",111,111,79%,
2595600,Asian-American International Beauty College,"229,596.00","114,798.00","7871 Westminster Blvd, Westminster, California 92683","7871 Westminster Blvd, Westminster, California 92683, USA",33.7595697,-117.9916177,"< 2-year, Private for-profit",501,501,91%,
4076400,Gnomon,"226,588.00","113,294.00","1015 N Cahuenga Blvd Ste 54301, Hollywood, California 90038","1015 N Cahuenga Blvd Ste 54301, Hollywood, California 90038, USA",34.0895706,-118.3291896,"4-year, primarily associate's, Private for-profit",399,399,0%,
713000,Newberry School Of Beauty,"225,726.00","112,863.00","16860 Devonshire Blvd, Granada Hills, California 91344-7401","16860 Devonshire Blvd, Granada Hills, California 91344-7401, USA",34.2566259,-118.5000983,"< 2-year, Private for-profit",113,113,85%,
3125300,John Wesley International Barber And Beauty College,"225,673.00","112,837.00","920 Atlantic Avenue Suite 200, Long Beach, California 90813","920 Atlantic Avenue Suite 200, Long Beach, California 90813, USA",33.7782,-118.1846936,"< 2-year, Private for-profit",66,66,56%,
3266300,Bethesda University,"222,826.00","111,413.00","730 N. Euclid St, Anaheim, California 92801","730 N. Euclid St, Anaheim, California 92801, USA",33.8422654,-117.9411471,"4-year, Private not-for-profit",397,258,26%,
4223700,Bay Area Medical Academy,"222,337.00","111,169.00","530 Bush Street #201, San Francisco, California 94108-3623","530 Bush Street #201, San Francisco, California 94108-3623, USA",37.790884,-122.4060307,"< 2-year, Private for-profit",101,101,72%,
1307400,American Beauty College,"221,903.00","110,952.00","652 S. Sunset Ave, West Covina, California 91790","652 S. Sunset Ave, West Covina, California 91790, USA",34.0693376,-117.9368998,"< 2-year, Private for-profit",92,92,48%,
2537200,Palomar Institute Of Cosmetology,"216,046.00","108,023.00","355 Via Vera Cruz #3, San Marcos, California 92078","355 Via Vera Cruz #3, San Marcos, California 92078, USA",33.1366386,-117.1882782,"< 2-year, Private for-profit",141,141,91%,
2597300,South Baylo University,"213,732.00","106,866.00","1126 N Brookhurst St, Anaheim, California 92801-1701","1126 N Brookhurst St, Anaheim, California 92801-1701, USA",33.8482268,-117.9584451,"4-year, Private not-for-profit",338,,,
2520400,Adrians Beauty College Of Turlock,"213,440.00","106,720.00","1340 W Main St, Turlock, California 95380","1340 W Main St, Turlock, California 95380, USA",37.4926686,-120.8642753,"< 2-year, Private for-profit",90,90,74%,
129500,Southwestern Law School,"212,120.00","106,060.00","3050 Wilshire Boulevard, Los Angeles, California 90010-1106","3050 Wilshire Boulevard, Los Angeles, California 90010-1106, USA",34.0613992,-118.2884225,"4-year, Private not-for-profit",819,,,
4215100,California Career Institute,"211,121.00","105,561.00","1240 S State College BLVD Ste. 135, Anaheim, California 92806","1240 S State College BLVD Ste. 135, Anaheim, California 92806, USA",33.816647,-117.88787,"< 2-year, Private for-profit",147,147,71%,
2578000,Santa Barbara Business College,"208,381.00","104,191.00","303 E Plaza Dr Ste 1, Santa Maria, California 93454","303 E Plaza Dr Ste 1, Santa Maria, California 93454, USA",34.937706,-120.433378,"4-year, primarily associate's, Private for-profit",89,89,52%,5%
3084700,Ventura Adult And Continuing Education,"207,297.00","103,649.00","5200 Valentine Rd, Ventura, California 93003-0000","5200 Valentine Rd, Ventura, California 93003-0000, USA",34.2561632,-119.2194483,"< 2-year, Public",97,97,94%,
4274900,Contra Costa Medical Career College,"206,180.00","103,090.00","4041 Lone Tree Way, Antioch, California 94581-6208","4041 Lone Tree Way, Antioch, California 94581-6208, USA",37.9767998,-121.8015862,"2-year, Private for-profit",701,701,100%,
3126800,Pacifica Graduate Institute,"204,263.00","102,132.00","249 Lambert Rd, Carpinteria, California 93013","249 Lambert Rd, Carpinteria, California 93013, USA",34.4219474,-119.5805358,"4-year, Private for-profit",829,,,
4175400,Elite Cosmetology School,"200,776.00","100,388.00","56300 Twentynine Palms Highway, Suite 113, Yucca Valley, California 92284-2860","56300 Twentynine Palms Highway, Suite 113, Yucca Valley, California 92284-2860, USA",34.121082,-116.435487,"< 2-year, Private for-profit",113,113,57%,
4242500,Associated Barber College Of San Diego,"199,340.00","99,670.00","1333 5th Avenue, San Diego, California 92101-4210","1333 5th Avenue, San Diego, California 92101-4210, USA",32.7192047,-117.1598386,"< 2-year, Private for-profit",65,65,93%,
4249600,Westcliff University,"199,036.00","99,518.00","17877 Von Karman Ave, Suite 400, Irvine, California 92614","17877 Von Karman Ave, Suite 400, Irvine, California 92614, USA",33.6855378,-117.8480941,"4-year, Private for-profit",2608,781,,
4159700,American Medical Sciences Center,"198,625.00","99,313.00","225 West Broadway, Suite 410, Glendale, California 91204-5108","225 West Broadway, Suite 410, Glendale, California 91204-5108, USA",34.147006,-118.2567737,"2-year, Private for-profit",64,64,74%,
448400,John F. Kennedy University,"196,815.00","98,408.00","100 Ellinwood Way, Pleasant Hill, California 94523-4817","100 Ellinwood Way, Pleasant Hill, California 94523-4817, USA",37.9571415,-122.0543582,"4-year, Private not-for-profit",1125,373,,
1310300,California Western School Of Law,"196,710.00","98,355.00","225 Cedar St, San Diego, California 92101-3046","225 Cedar St, San Diego, California 92101-3046, USA",32.7217154,-117.1625497,"4-year, Private not-for-profit",793,,,
4153900,Providence Christian College,"195,829.00","97,915.00","464 E Walnut St, Pasadena, California 91101","464 E Walnut St, Pasadena, California 91101, USA",34.1493046,-118.1409294,"4-year, Private not-for-profit",151,151,41%,
4114500,Valley College Of Medical Careers,"189,724.00","94,862.00","8399 Topanga Canyon Blvd Ste 200, West Hills, California 91304","8399 Topanga Canyon Blvd Ste 200, West Hills, California 91304, USA",34.2218048,-118.6068878,"2-year, Private for-profit",94,94,82%,
3853300,Keck Graduate Institute Of Applied Life Sciences,"189,117.00","94,559.00","535 Watson Dr, Claremont, California 91711","535 Watson Dr, Claremont, California 91711, USA",34.0932278,-117.7235615,"4-year, Private not-for-profit",580,,,
2211000,Salon Success Academy,"189,064.00","94,532.00","6780 Indiana Ave. Ste #200, Riverside, California 92506","6780 Indiana Ave. Ste #200, Riverside, California 92506, USA",33.9431785,-117.3911011,"< 2-year, Private for-profit",92,92,52%,
4145600,International College Of Cosmetology,"188,961.00","94,481.00","3701 International Boulevard, Oakland, California 94601-3525","3701 International Boulevard, Oakland, California 94601-3525, USA",37.7749278,-122.2208487,"< 2-year, Private for-profit",223,223,66%,
2304300,Platt College - San Diego,"187,377.00","93,689.00","6250 El Cajon Blvd, San Diego, California 92115-3919","6250 El Cajon Blvd, San Diego, California 92115-3919, USA",32.7639633,-117.0635483,"4-year, primarily associate's, Private for-profit",115,115,73%,
1294200,Rosemead Beauty School,"187,022.00","93,511.00","8531 E Valley Blvd, Rosemead, California 91770-1639","8531 E Valley Blvd, Rosemead, California 91770-1639, USA",34.0807748,-118.0829637,"< 2-year, Private for-profit",344,344,92%,
4208400,Riverside County Office Of Education,"186,455.00","93,228.00","2100 E. Alessandro Blvd., Riverside, California 92508","2100 E. Alessandro Blvd., Riverside, California 92508, USA",33.9172852,-117.2947066,"< 2-year, Public",291,291,81%,
4270000,Urban Barber College,"185,408.00","92,704.00","1809 Willow Pass Rd, Concord, California 94520-2522","1809 Willow Pass Rd, Concord, California 94520-2522, USA",37.9747975,-122.0392227,"< 2-year, Private for-profit",150,150,,
4141700,Healing Hands School Of Holistic Health,"183,798.00","91,899.00","125 W Mission Ave Ste 212, Escondido, California 92025","125 W Mission Ave Ste 212, Escondido, California 92025, USA",33.1296186,-117.0862575,"< 2-year, Private for-profit",337,337,72%,
2231900,Gemological Institute Of America,"176,142.00","88,071.00","5345 Armada Dr, Carlsbad, California 92008","5345 Armada Dr, Carlsbad, California 92008, USA",33.1322843,-117.3192726,"< 2-year, Private not-for-profit",167,167,93%,
616500,Los Angeles County College Of Nursing And Allied Health,"174,062.00","87,031.00","1237 N. Mission Rd., Los Angeles, California 90033-1084","1237 N. Mission Rd., Los Angeles, California 90033-1084, USA",34.0624252,-118.2121202,"2-year, Public",199,199,,
3874300,Cambridge Junior College,"172,968.00","86,484.00","939 Live Oak Blvd, Yuba City, California 95991","939 Live Oak Blvd, Yuba City, California 95991, USA",39.1421027,-121.6203321,"< 2-year, Private for-profit",112,112,68%,
2228500,Life Chiropractic College West,"171,227.00","85,614.00","25001 Industrial Blvd, Hayward, California 94545-2800","25001 Industrial Blvd, Hayward, California 94545-2800, USA",37.6377503,-122.1183586,"4-year, Private not-for-profit",600,,,
4190800,Santa Ana Beauty College,"171,120.00","85,560.00","1926 West 17th Street, Santa Ana, California 92706-2321","1926 West 17th Street, Santa Ana, California 92706-2321, USA",33.7594253,-117.8959495,"< 2-year, Private for-profit",101,101,93%,
3910400,National Polytechnic College,"168,452.00","84,226.00","4105 South Street, Lakewood, California 90712","4105 South Street, Lakewood, California 90712, USA",33.8607371,-118.1437848,"2-year, Private for-profit",192,192,51%,
4001300,Palace Beauty College,"167,681.00","83,841.00","1517 S Western Ave, Los Angeles, California 90006","1517 S Western Ave, Los Angeles, California 90006, USA",34.0447812,-118.3094696,"< 2-year, Private for-profit",239,239,90%,
2282300,Alhambra Beauty College,"166,902.00","83,451.00","200 W Main St, Alhambra, California 91801","200 W Main St, Alhambra, California 91801, USA",34.0938808,-118.1289548,"< 2-year, Private for-profit",129,129,76%,
3974500,California Career College,"166,258.00","83,129.00","7003 Owensmouth Avenue, Canoga Park, California 91303-2006","7003 Owensmouth Avenue, Canoga Park, California 91303-2006, USA",34.1975508,-118.6018132,"2-year, Private for-profit",117,117,,
1324000,Lytle'S Redwood Empire Beauty College,"166,160.00","83,080.00","186 Wikiup Dr, Santa Rosa, California 95403","186 Wikiup Dr, Santa Rosa, California 95403, USA",38.5083946,-122.7576522,"< 2-year, Private for-profit",115,115,76%,
2309500,Clovis Adult Education,"166,012.00","83,006.00","1452 David E Cook Way, Clovis, California 93611","1452 David E Cook Way, Clovis, California 93611, USA",36.8345096,-119.6897957,"< 2-year, Public",671,671,69%,
4185600,Medical Allied Career Center,"163,365.00","81,683.00","12631 East Imperial Highway Bldg D-108, Santa Fe Springs, California 90670-4710","12631 East Imperial Highway Bldg D-108, Santa Fe Springs, California 90670-4710, USA",33.9182954,-118.0623827,"4-year, primarily associate's, Private for-profit",70,70,85%,
4186900,"International College Of Beauty, Arts & Sciences","162,618.00","81,309.00","5225 San Fernando Road West, Los Angeles, California 90039-1012","5225 San Fernando Road West, Los Angeles, California 90039-1012, USA",34.1477365,-118.273538,"< 2-year, Private for-profit",49,49,90%,
4273300,Victory Career College,"162,289.00","81,145.00","19401 South Vermont Avenue, Torrance, California 90502-4434","19401 South Vermont Avenue, Torrance, California 90502-4434, USA",33.8547159,-118.2917254,"< 2-year, Private for-profit",123,123,78%,
4245500,Universal Healthcare Careers College,"158,672.00","79,336.00","1625 West Olympic Boulevard, Suite 708, Los Angeles, California 90015-3811","1625 West Olympic Boulevard, Suite 708, Los Angeles, California 90015-3811, USA",34.0498732,-118.2745247,"< 2-year, Private for-profit",156,156,96%,
3999300,Beaumont Adult School,"156,954.00","78,477.00","1575 Cherry Ave, Beaumont, California 92223","1575 Cherry Ave, Beaumont, California 92223, USA",33.9513573,-116.9672134,"< 2-year, Public",88,88,83%,
4237800,California Barber And Beauty College,"156,711.00","78,356.00","5315 El Cajon Boulevard, San Diego, California 92115-4730","5315 El Cajon Boulevard, San Diego, California 92115-4730, USA",32.7572017,-117.0813849,"< 2-year, Private for-profit",62,62,33%,
4195200,Diamond Beauty College,"155,896.00","77,948.00","10301 Garvey Avenue  #200, South El Monte, California 91733-2180","10301 Garvey Avenue  #200, South El Monte, California 91733-2180, USA",34.0630432,-118.046706,"< 2-year, Private for-profit",47,47,94%,
4212000,Lawrence & Company College Of Cosmetology,"154,888.00","77,444.00","810 North 10th Avenue, Hanford, California 93230-4102","810 North 10th Avenue, Hanford, California 93230-4102, USA",36.3333869,-119.6373923,"< 2-year, Private for-profit",48,48,71%,
718700,North Adrian'S College Of Beauty,"153,436.00","76,718.00","124 Floyd Ave, Modesto, California 95350-2381","124 Floyd Ave, Modesto, California 95350-2381, USA",37.6778192,-120.9926957,"< 2-year, Private for-profit",236,236,57%,
2298000,Design Institute Of San Diego,"149,639.00","74,820.00","8555 Commerce Ave, San Diego, California 92121","8555 Commerce Ave, San Diego, California 92121, USA",32.8809024,-117.1673285,"4-year, Private for-profit",121,121,56%,6%
2178700,Citrus Heights Beauty College,"147,682.00","73,841.00","7518 Baird Way, Citrus Heights, California 95610-1410","7518 Baird Way, Citrus Heights, California 95610-1410, USA",38.7129784,-121.2895084,"< 2-year, Private for-profit",123,123,75%,
3479300,Pci College,"146,325.00","73,163.00","17215 Studebaker Rd #310, Cerritos, California 90703","17215 Studebaker Rd #310, Cerritos, California 90703, USA",33.8745701,-118.1002601,"4-year, primarily associate's, Private for-profit",114,114,84%,
123000,Marshall B. Ketchum University,"145,778.00","72,889.00","2575 Yorba Linda Blvd, Fullerton, California 92831-1699","2575 Yorba Linda Blvd, Fullerton, California 92831-1699, USA",33.8893068,-117.8861937,"4-year, Private not-for-profit",739,,,
884600,Wright Institute (The),"145,487.00","72,744.00","2728 Durant Ave, Berkeley, California 94704-1796","2728 Durant Ave, Berkeley, California 94704-1796, USA",37.8682532,-122.2530905,"4-year, Private not-for-profit",487,,,
714200,Lyle'S College Of Beauty,"145,271.00","72,636.00","6735 N First Ave Ste 112, Fresno, California 93710","6735 N First Ave Ste 112, Fresno, California 93710, USA",36.8365286,-119.7747226,"< 2-year, Private for-profit",83,83,40%,
3696300,University Of The West,"140,086.00","70,043.00","1409 Walnut Grove Ave, Rosemead, California 91770","1409 Walnut Grove Ave, Rosemead, California 91770, USA",34.0458663,-118.0835077,"4-year, Private not-for-profit",284,153,17%,22%
4195500,Southern States University,"139,085.00","69,543.00","1094 Cuhady Place, #120, San Diego, California 92110","1094 Cuhady Place, #120, San Diego, California 92110, USA",32.7675758,-117.2014432,"4-year, Private for-profit",405,94,50%,
4206800,Advance Beauty Techs Academy,"134,174.00","67,087.00","641 N State St Ste 1, San Jacinto, California 92583-6572","641 N State St Ste 1, San Jacinto, California 92583-6572, USA",33.7951842,-116.9698507,"< 2-year, Private for-profit",122,122,56%,
4227000,Abc Adult School,"133,978.00","66,989.00","12254 Cuesta Drive, Cerritos, California 90703-2801","12254 Cuesta Drive, Cerritos, California 90703-2801, USA",33.878243,-118.070145,"< 2-year, Public",77,77,83%,
4222200,Fab School (The),"132,973.00","66,487.00","9571 Pittsburgh Avenue, Rancho Cucamonga, California 91730","9571 Pittsburgh Avenue, Rancho Cucamonga, California 91730, USA",34.0798557,-117.5551612,"< 2-year, Private for-profit",148,148,98%,
4221700,Zms The Academy,"132,113.00","66,057.00","2228 E Cesar E Chavez Ave, Los Angeles, California 90033-4231","2228 E Cesar E Chavez Ave, Los Angeles, California 90033-4231, USA",34.0471236,-118.2094867,"< 2-year, Private for-profit",125,125,43%,
4158900,Flair Beauty College,"130,763.00","65,382.00","23754 Valencia Blvd, Valencia, California 91355-2106","23754 Valencia Blvd, Valencia, California 91355-2106, USA",34.4144668,-118.5500304,"< 2-year, Private for-profit",62,62,77%,
3577300,Coba Academy,"130,645.00","65,323.00","663 N. Euclid Street, Anaheim, California 92801","663 N. Euclid Street, Anaheim, California 92801, USA",33.8413116,-117.9430692,"< 2-year, Private for-profit",81,81,63%,
3646300,Design'S School Of Cosmetology,"125,204.00","62,602.00","2727 Buena Vista Drive #105, Paso Robles, California 93446","2727 Buena Vista Drive #105, Paso Robles, California 93446, USA",35.6486892,-120.6726226,"< 2-year, Private for-profit",27,27,69%,
4255300,Hoss Lee Academy,"122,657.00","61,329.00","200 Whyte Avenue, Roseville, California 95661-5233","200 Whyte Avenue, Roseville, California 95661-5233, USA",38.7218671,-121.2895187,"< 2-year, Private for-profit",75,75,82%,
4189800,Academy For Salon Professionals,"122,587.00","61,294.00","19520 Nordhoff St. Unit 9, Northridge, California 91324","19520 Nordhoff St. Unit 9, Northridge, California 91324, USA",34.2342974,-118.5582082,"< 2-year, Private for-profit",82,82,74%,
3131300,Five Branches University,"120,172.00","60,086.00","200 7th Avenue, Santa Cruz, California 95062","200 7th Avenue, Santa Cruz, California 95062, USA",36.9643335,-121.9980291,"4-year, Private for-profit",353,,,
3759300,Stellar Career College,"118,426.00","59,213.00","4300 Sisk Rd, Modesto, California 95356","4300 Sisk Rd, Modesto, California 95356, USA",37.7019065,-121.0710233,"< 2-year, Private for-profit",32,32,83%,
1085400,Thomas Jefferson School Of Law,"116,684.00","58,342.00","701 B Street - Suite 110, San Diego, California 92101","701 B Street - Suite 110, San Diego, California 92101, USA",32.7175528,-117.1579148,"4-year, Private not-for-profit",219,,,
